Nom,Insee,cp,arr,Canton,epci,pop,lat,long,alti,surf
Allineuc,22001,22460,4,Guerlédan,CC Loudéac Communauté - Bretagne Centre,592,48.31194,-2.8725,180,24.35
Andel,22002,22400,4,Lamballe-Armor,CA Lamballe Terre et Mer,1170,48.49139,-2.56556,80,12.39
Aucaleuc,22003,22100,1,Dinan,CA Dinan Agglomération,953,48.45583,-2.12694,100,6.51
Beaussais-sur-Mer,22209,22650,1,Pleslin-Trigavou,CC Côte d'Emeraude,4379,48.58083,-2.13917,24,36.07
Bégard,22004,22140,2,Bégard,CA Guingamp-Paimpol Agglomération de l'Armor à l'Argoat,4862,48.63,-3.30028,120,36.5
Belle-Isle-en-Terre,22005,22810,2,Callac,CA Guingamp-Paimpol Agglomération de l'Armor à l'Argoat,1031,48.54417,-3.39472,101,14.29
Berhet,22006,22140,3,Bégard,CA Lannion-Trégor Communauté,272,48.69611,-3.30306,80,3.37
Binic-Étables-sur-Mer,22055,22680,4,Plouha,CA Saint-Brieuc Armor Agglomération,7020,48.62778,-2.83361,70,9.32
Bobital,22008,22100,1,Lanvallay,CA Dinan Agglomération,1143,48.41306,-2.10194,90,5.06
le Bodéo,22009,22320,4,Plaintel,CA Saint-Brieuc Armor Agglomération,178,48.3225,-2.93556,193,10.2
Bon Repos sur Blavet,22107,22570,2,Rostrenen,CC du Kreiz-Breizh (CCKB),1237,48.24222,-3.12194,200,24.91
Boqueho,22011,22170,2,Plélo,CC Leff Armor Communauté,1054,48.4825,-2.95917,170,27.71
la Bouillie,22012,22240,4,Pléneuf-Val-André,CA Lamballe Terre et Mer,845,48.57417,-2.43333,100,10.92
Bourbriac,22013,22390,2,Callac,CA Guingamp-Paimpol Agglomération de l'Armor à l'Argoat,2126,48.47556,-3.18694,200,73.19
Bourseul,22014,22130,1,Plancoët,CA Dinan Agglomération,1247,48.48778,-2.255,60,22.49
Bréhand,22015,22510,4,Plénée-Jugon,CA Lamballe Terre et Mer,1695,48.40278,-2.57278,82,25.98
Brélidy,22018,22140,2,Bégard,CA Guingamp-Paimpol Agglomération de l'Armor à l'Argoat,316,48.6625,-3.21778,70,8.3
Bringolo,22019,22170,2,Plélo,CC Leff Armor Communauté,510,48.57389,-3.00056,120,9.4
Broons,22020,22250,1,Broons,CA Dinan Agglomération,2931,48.31722,-2.26083,90,35.74
Brusvily,22021,22100,1,Lanvallay,CA Dinan Agglomération,1155,48.39167,-2.12472,115,12.19
Bulat-Pestivien,22023,22160,2,Callac,CA Guingamp-Paimpol Agglomération de l'Armor à l'Argoat,409,48.43,-3.33139,260,31.74
Calanhel,22024,22160,2,Callac,CA Guingamp-Paimpol Agglomération de l'Armor à l'Argoat,236,48.43583,-3.48194,250,14.72
Callac,22025,22160,2,Callac,CA Guingamp-Paimpol Agglomération de l'Armor à l'Argoat,2274,48.40611,-3.42444,160,33.41
Calorguen,22026,22100,1,Lanvallay,CA Dinan Agglomération,722,48.40917,-2.02778,50,8.57
Camlez,22028,22450,3,Tréguier,CA Lannion-Trégor Communauté,832,48.77667,-3.30167,70,11.73
Canihuel,22029,22480,2,Rostrenen,CC du Kreiz-Breizh (CCKB),348,48.34028,-3.10556,200,32.33
Caouënnec-Lanvézéac,22030,22300,3,Bégard,CA Lannion-Trégor Communauté,904,48.70333,-3.375,90,7.22
Carnoët,22031,22160,2,Callac,CA Guingamp-Paimpol Agglomération de l'Armor à l'Argoat,667,48.3675,-3.52,200,42.12
Caulnes,22032,22350,1,Broons,CA Dinan Agglomération,2506,48.28861,-2.15306,75,32.55
Caurel,22033,22530,4,Guerlédan,CC Loudéac Communauté - Bretagne Centre,355,48.21611,-3.03444,187,13.16
Cavan,22034,22140,3,Bégard,CA Lannion-Trégor Communauté,1548,48.67139,-3.34528,96,16.82
les Champs-Géraux,22035,22630,1,Lanvallay,CA Dinan Agglomération,1053,48.41611,-1.96861,38,19.74
la Chapelle-Blanche,22036,22350,1,Broons,CA Dinan Agglomération,211,48.26694,-2.14194,70,8.05
la Chapelle-Neuve,22037,22160,2,Callac,CA Guingamp-Paimpol Agglomération de l'Armor à l'Argoat,403,48.4625,-3.41889,250,24.15
Châtelaudren-Plouagat,22206,22170,2,Plélo,CC Leff Armor Communauté,3968,48.53556,-2.99861,140,32.44
la Chèze,22039,22210,4,Loudéac,CC Loudéac Communauté - Bretagne Centre,572,48.13167,-2.65556,70,2.59
Coadout,22040,22970,2,Callac,CA Guingamp-Paimpol Agglomération de l'Armor à l'Argoat,538,48.51805,-3.18861,150,9.88
Coatascorn,22041,22140,3,Bégard,CA Lannion-Trégor Communauté,251,48.67444,-3.24917,73,8.13
Coatréven,22042,22450,3,Tréguier,CA Lannion-Trégor Communauté,493,48.76778,-3.34194,100,9.37
Coëtmieux,22044,22400,4,Lamballe-Armor,CA Lamballe Terre et Mer,1840,48.49139,-2.59972,60,8.21
Cohiniac,22045,22800,2,Plélo,CC Leff Armor Communauté,397,48.46194,-2.94778,160,12.56
Corlay,22047,22320,4,Guerlédan,CC Loudéac Communauté - Bretagne Centre,913,48.31694,-3.05833,180,14.13
Corseul,22048,22130,1,Plancoët,CA Dinan Agglomération,2270,48.48139,-2.16694,80,42.49
Créhen,22049,22130,1,Plancoët,CA Dinan Agglomération,1664,48.54667,-2.21167,40,18.46
Dinan,22050,22100,1,Dinan,CA Dinan Agglomération,14966,48.45222,-2.04722,69,3.97
Duault,22052,22160,2,Callac,CA Guingamp-Paimpol Agglomération de l'Armor à l'Argoat,388,48.36167,-3.43611,165,21.87
Éréac,22053,22250,4,Broons,CA Lamballe Terre et Mer,676,48.27417,-2.34583,140,21.49
Erquy,22054,22430,4,Pléneuf-Val-André,CA Lamballe Terre et Mer,3929,48.63028,-2.46028,11,26.58
Évran,22056,22630,1,Lanvallay,CA Dinan Agglomération,1787,48.38222,-1.97944,20,24.3
le Faouët,22057,22290,2,Plouha,CC Leff Armor Communauté,410,48.68417,-3.0725,70,7.7
Fréhel,22179,22240,1,Pléneuf-Val-André,CA Dinan Agglomération,1611,48.62889,-2.3625,72,33.7
le Fœil,22059,22800,4,Plélo,CA Saint-Brieuc Armor Agglomération,1382,48.42778,-2.91417,199,21.84
Gausson,22060,22150,4,Guerlédan,CC Loudéac Communauté - Bretagne Centre,648,48.29944,-2.75167,200,16.7
Glomel,22061,22110,2,Rostrenen,CC du Kreiz-Breizh (CCKB),1412,48.22222,-3.39833,230,79.27
Gomené,22062,22230,4,Broons,CC Loudéac Communauté - Bretagne Centre,549,48.17389,-2.48556,200,25.65
Gommenec'h,22063,22290,2,Plouha,CC Leff Armor Communauté,552,48.64139,-3.04806,80,12.22
Gouarec,22064,22570,2,Rostrenen,CC du Kreiz-Breizh (CCKB),912,48.22806,-3.17833,131,6.64
Goudelin,22065,22290,2,Guingamp,CC Leff Armor Communauté,1716,48.60444,-3.01806,90,23.29
Grâce-Uzel,22068,22460,4,Guerlédan,CC Loudéac Communauté - Bretagne Centre,429,48.24167,-2.79917,190,8.14
Grâces,22067,22200,2,Guingamp,CA Guingamp-Paimpol Agglomération de l'Armor à l'Argoat,2588,48.55667,-3.18528,130,14.17
Guenroc,22069,22350,1,Broons,CA Dinan Agglomération,217,48.31778,-2.07444,99,7.57
Guerlédan,22158,22530,4,Guerlédan,CC Loudéac Communauté - Bretagne Centre,2528,48.20194,-2.98583,150,31.28
Guingamp,22070,22200,2,Guingamp,CA Guingamp-Paimpol Agglomération de l'Armor à l'Argoat,7127,48.56111,-3.1475,100,3.48
Guitté,22071,22350,1,Broons,CA Dinan Agglomération,711,48.29694,-2.09417,80,15.07
Gurunhuel,22072,22390,2,Callac,CA Guingamp-Paimpol Agglomération de l'Armor à l'Argoat,406,48.51583,-3.29861,290,19.97
la Harmoye,22073,22320,4,Plélo,CA Saint-Brieuc Armor Agglomération,379,48.33639,-2.96,191,17.89
le Haut-Corlay,22074,22320,4,Guerlédan,CC Loudéac Communauté - Bretagne Centre,650,48.32361,-3.05667,200,25.96
Hémonstoir,22075,22600,4,Guerlédan,CC Loudéac Communauté - Bretagne Centre,708,48.16028,-2.82833,110,14.13
Hénanbihen,22076,22550,4,Pléneuf-Val-André,CA Lamballe Terre et Mer,1429,48.56055,-2.37333,67,31.88
Hénansal,22077,22400,4,Lamballe-Armor,CA Lamballe Terre et Mer,1263,48.54111,-2.43222,90,29.23
Hénon,22079,22150,4,Plaintel,CA Lamballe Terre et Mer,2315,48.38472,-2.68194,145,42.18
Hillion,22081,22120,4,Trégueux,CA Saint-Brieuc Armor Agglomération,4304,48.51389,-2.66722,30,24.7
le Hinglé,22082,22100,1,Lanvallay,CA Dinan Agglomération,912,48.39278,-2.07833,70,3.44
Île-de-Bréhat,22016,22870,4,Paimpol,,427,48.84417,-3.0,25,3.48
Illifaut,22083,22230,4,Broons,CC Loudéac Communauté - Bretagne Centre,688,48.145,-2.34611,116,26.97
Jugon-les-Lacs,22084,22270,4,Plénée-Jugon,CA Lamballe Terre et Mer,2528,48.40889,-2.32111,60,26.81
Kerbors,22085,22610,3,Tréguier,CA Lannion-Trégor Communauté,286,48.82806,-3.185,40,7.04
Kerfot,22086,22500,2,Paimpol,CA Guingamp-Paimpol Agglomération de l'Armor à l'Argoat,634,48.73722,-3.02667,80,5.86
Kergrist-Moëlou,22087,22110,2,Rostrenen,CC du Kreiz-Breizh (CCKB),636,48.31,-3.31722,260,47.24
Kerien,22088,22480,2,Callac,CA Guingamp-Paimpol Agglomération de l'Armor à l'Argoat,247,48.39,-3.21111,261,22.04
Kermaria-Sulard,22090,22450,3,Perros-Guirec,CA Lannion-Trégor Communauté,1106,48.77083,-3.37056,90,9.27
Kermoroc'h,22091,22140,2,Bégard,CA Guingamp-Paimpol Agglomération de l'Armor à l'Argoat,429,48.62361,-3.205,110,6.19
Kerpert,22092,22480,2,Callac,CA Guingamp-Paimpol Agglomération de l'Armor à l'Argoat,269,48.37472,-3.13167,260,21.35
La Roche-Jaudy,22264,22450,3,Tréguier,CA Lannion-Trégor Communauté,2643,48.74639,-3.26111,40,1.82
Lamballe-Armor,22093,22400,4,Lamballe-Armor,CA Lamballe Terre et Mer,16911,48.46722,-2.51444,55,77.51
Lancieux,22094,22770,1,Pleslin-Trigavou,CC Côte d'Emeraude,1602,48.60944,-2.14944,21,6.54
Landebaëron,22095,22140,2,Bégard,CA Guingamp-Paimpol Agglomération de l'Armor à l'Argoat,169,48.63583,-3.20944,80,6.44
Landébia,22096,22130,1,Plancoët,CA Dinan Agglomération,442,48.51528,-2.33556,60,3.54
la Landec,22097,22980,1,Plancoët,CA Dinan Agglomération,749,48.43472,-2.17667,100,7.76
Landéhen,22098,22400,4,Lamballe-Armor,CA Lamballe Terre et Mer,1445,48.42944,-2.53833,90,12.15
Lanfains,22099,22800,4,Plélo,CA Saint-Brieuc Armor Agglomération,1091,48.35333,-2.91389,287,22.48
Langoat,22101,22450,3,Tréguier,CA Lannion-Trégor Communauté,1161,48.75083,-3.27972,30,18.79
Langrolay-sur-Rance,22103,22490,1,Pleslin-Trigavou,CA Dinan Agglomération,992,48.55528,-2.00333,50,5.32
Languédias,22104,22980,1,Plancoët,CA Dinan Agglomération,558,48.38861,-2.21028,95,8.77
Languenan,22105,22130,1,Plancoët,CA Dinan Agglomération,1160,48.51139,-2.12528,101,16.08
Langueux,22106,22360,4,Trégueux,CA Saint-Brieuc Armor Agglomération,7947,48.495,-2.71361,100,9.21
Lanleff,22108,22290,2,Paimpol,CA Guingamp-Paimpol Agglomération de l'Armor à l'Argoat,121,48.69333,-3.045,45,2.21
Lanloup,22109,22580,2,Paimpol,CA Guingamp-Paimpol Agglomération de l'Armor à l'Argoat,251,48.71167,-2.96583,60,2.56
Lanmérin,22110,22300,3,Tréguier,CA Lannion-Trégor Communauté,573,48.74,-3.35,40,4.23
Lanmodez,22111,22610,3,Tréguier,CA Lannion-Trégor Communauté,400,48.84,-3.105,50,4.25
Lannebert,22112,22290,2,Plouha,CC Leff Armor Communauté,431,48.65805,-3.00861,70,7.0
Lannion,22113,22300,3,Lannion,CA Lannion-Trégor Communauté,20525,48.73389,-3.45667,10,47.99
Lanrelas,22114,22250,4,Broons,CA Lamballe Terre et Mer,866,48.25083,-2.29,100,29.98
Lanrivain,22115,22480,2,Rostrenen,CC du Kreiz-Breizh (CCKB),465,48.34639,-3.21222,250,37.61
Lanrodec,22116,22170,2,Plélo,CC Leff Armor Communauté,1380,48.51778,-3.03028,200,31.94
Lantic,22117,22410,4,Plouha,CA Saint-Brieuc Armor Agglomération,1799,48.60667,-2.88111,68,15.99
Lanvallay,22118,22100,1,Lanvallay,CA Dinan Agglomération,4235,48.45639,-2.02667,67,14.82
Lanvellec,22119,22420,3,Plestin-les-Grèves,CA Lannion-Trégor Communauté,602,48.61945,-3.53806,108,18.88
Lanvollon,22121,22290,2,Plouha,CC Leff Armor Communauté,1907,48.63055,-2.98472,90,5.04
Laurenan,22122,22230,4,Broons,CC Loudéac Communauté - Bretagne Centre,742,48.19917,-2.53194,170,31.35
Lescouët-Gouarec,22124,22570,2,Rostrenen,CC du Kreiz-Breizh (CCKB),215,48.16028,-3.24306,227,19.17
le Leslay,22126,22800,4,Plélo,CA Saint-Brieuc Armor Agglomération,154,48.42917,-2.96528,200,5.1
Lézardrieux,22127,22740,3,Tréguier,CA Lannion-Trégor Communauté,1632,48.785,-3.10639,30,12.21
Loc-Envel,22129,22810,2,Callac,CA Guingamp-Paimpol Agglomération de l'Armor à l'Argoat,74,48.51472,-3.40722,140,3.41
Locarn,22128,22340,2,Rostrenen,CC du Kreiz-Breizh (CCKB),421,48.31889,-3.42111,170,32.55
Loguivy-Plougras,22131,22780,3,Plestin-les-Grèves,CA Lannion-Trégor Communauté,788,48.52056,-3.48833,160,49.04
Lohuec,22132,22160,2,Callac,CA Guingamp-Paimpol Agglomération de l'Armor à l'Argoat,246,48.46028,-3.52111,240,17.44
Loscouët-sur-Meu,22133,22230,4,Broons,CC Loudéac Communauté - Bretagne Centre,644,48.1775,-2.23917,100,22.28
Louannec,22134,22700,3,Perros-Guirec,CA Lannion-Trégor Communauté,3053,48.79333,-3.41194,60,14.37
Louargat,22135,22540,2,Callac,CA Guingamp-Paimpol Agglomération de l'Armor à l'Argoat,2393,48.565,-3.33889,182,58.51
Loudéac,22136,22600,4,Loudéac,CC Loudéac Communauté - Bretagne Centre,9875,48.17778,-2.75389,155,82.07
Maël-Carhaix,22137,22340,2,Rostrenen,CC du Kreiz-Breizh (CCKB),1455,48.28361,-3.42278,200,37.1
Maël-Pestivien,22138,22160,2,Callac,CA Guingamp-Paimpol Agglomération de l'Armor à l'Argoat,360,48.39361,-3.29611,278,31.87
Magoar,22139,22480,2,Callac,CA Guingamp-Paimpol Agglomération de l'Armor à l'Argoat,75,48.39667,-3.18833,275,7.85
la Malhoure,22140,22640,4,Lamballe-Armor,CA Lamballe Terre et Mer,621,48.39722,-2.49361,120,5.17
Mantallot,22141,22450,3,Bégard,CA Lannion-Trégor Communauté,234,48.70972,-3.29722,78,2.85
Matignon,22143,22550,1,Pléneuf-Val-André,CA Dinan Agglomération,1738,48.59528,-2.28889,70,14.75
la Méaugon,22144,22440,4,Ploufragan,CA Saint-Brieuc Armor Agglomération,1326,48.50083,-2.83667,120,6.75
Mégrit,22145,22270,1,Broons,CA Dinan Agglomération,809,48.37528,-2.24778,90,21.2
Mellionnec,22146,22110,2,Rostrenen,CC du Kreiz-Breizh (CCKB),420,48.17583,-3.29556,240,24.4
Le Mené,22046,22330,4,Plénée-Jugon,CC Loudéac Communauté - Bretagne Centre,6420,48.30222,-2.5175,230,7.01
Merdrignac,22147,22230,4,Broons,CC Loudéac Communauté - Bretagne Centre,3140,48.19305,-2.41222,140,57.51
Mérillac,22148,22230,4,Broons,CC Loudéac Communauté - Bretagne Centre,242,48.25639,-2.39194,145,14.03
Merléac,22149,22460,4,Guerlédan,CC Loudéac Communauté - Bretagne Centre,463,48.2775,-2.89917,240,30.37
le Merzer,22150,22200,2,Guingamp,CC Leff Armor Communauté,974,48.57528,-3.06472,120,12.99
Minihy-Tréguier,22152,22220,3,Tréguier,CA Lannion-Trégor Communauté,1263,48.775,-3.22694,33,12.84
Moncontour,22153,22510,4,Plaintel,CA Lamballe Terre et Mer,742,48.35861,-2.6325,120,0.48
la Motte,22155,22600,4,Guerlédan,CC Loudéac Communauté - Bretagne Centre,2159,48.23472,-2.73056,220,43.51
Les Moulins,22183,22210,4,Loudéac,CC Loudéac Communauté - Bretagne Centre,3751,48.18,-2.59222,150,41.58
Moustéru,22156,22200,2,Callac,CA Guingamp-Paimpol Agglomération de l'Armor à l'Argoat,642,48.51722,-3.23917,230,14.47
le Moustoir,22157,22340,2,Rostrenen,CC Poher Communauté,659,48.26611,-3.50694,130,14.85
Noyal,22160,22400,4,Lamballe-Armor,CA Lamballe Terre et Mer,981,48.44695,-2.48389,76,7.09
Pabu,22161,22200,2,Guingamp,CA Guingamp-Paimpol Agglomération de l'Armor à l'Argoat,2769,48.58805,-3.135,110,7.99
Paimpol,22162,22500,2,Paimpol,CA Guingamp-Paimpol Agglomération de l'Armor à l'Argoat,7266,48.77861,-3.04417,30,24.11
Paule,22163,22340,2,Rostrenen,CC du Kreiz-Breizh (CCKB),674,48.23528,-3.44333,180,38.14
Pédernec,22164,22540,2,Bégard,CA Guingamp-Paimpol Agglomération de l'Armor à l'Argoat,1891,48.5975,-3.26778,130,26.97
Penguily,22165,22510,4,Plénée-Jugon,CA Lamballe Terre et Mer,608,48.37278,-2.49361,145,10.79
Penvénan,22166,22710,3,Tréguier,CA Lannion-Trégor Communauté,2548,48.81139,-3.29528,70,20.42
Perros-Guirec,22168,22700,3,Perros-Guirec,CA Lannion-Trégor Communauté,7260,48.81278,-3.44833,50,14.97
Peumerit-Quintin,22169,22480,2,Rostrenen,CC du Kreiz-Breizh (CCKB),184,48.36,-3.27222,250,14.9
Plaine-Haute,22170,22800,4,Plélo,CA Saint-Brieuc Armor Agglomération,1705,48.445,-2.85361,190,15.87
Plaintel,22171,22940,4,Plaintel,CA Saint-Brieuc Armor Agglomération,4571,48.40694,-2.81611,200,27.52
Plancoët,22172,22130,1,Plancoët,CA Dinan Agglomération,3095,48.52333,-2.23361,10,11.57
Pléboulle,22174,22550,1,Pléneuf-Val-André,CA Dinan Agglomération,716,48.60917,-2.33667,40,14.24
Plédéliac,22175,22270,4,Plénée-Jugon,CA Lamballe Terre et Mer,1602,48.44861,-2.385,90,52.77
Plédran,22176,22960,4,Ploufragan,CA Saint-Brieuc Armor Agglomération,6909,48.44417,-2.74639,150,34.71
Pléguien,22177,22290,2,Plouha,CC Leff Armor Communauté,1440,48.63417,-2.93861,71,15.69
Pléhédel,22178,22290,2,Paimpol,CA Guingamp-Paimpol Agglomération de l'Armor à l'Argoat,1317,48.69528,-3.00722,100,12.72
Plélan-le-Petit,22180,22980,1,Plancoët,CA Dinan Agglomération,1947,48.43417,-2.21667,93,21.93
Plélauff,22181,22570,2,Rostrenen,CC du Kreiz-Breizh (CCKB),687,48.20667,-3.20917,150,25.95
Plélo,22182,22170,2,Plélo,CC Leff Armor Communauté,3283,48.55583,-2.94583,110,44.43
Plémy,22184,22150,4,Plaintel,CA Lamballe Terre et Mer,1583,48.33583,-2.68139,235,40.04
Plénée-Jugon,22185,22640,4,Plénée-Jugon,CA Lamballe Terre et Mer,2533,48.36472,-2.39778,70,62.47
Pléneuf-Val-André,22186,22370,4,Pléneuf-Val-André,CA Lamballe Terre et Mer,4094,48.58528,-2.53972,50,17.01
Plérin,22187,22190,4,Plérin,CA Saint-Brieuc Armor Agglomération,14527,48.53528,-2.76611,113,27.77
Plerneuf,22188,22170,2,Plélo,CC Leff Armor Communauté,1119,48.51472,-2.88417,170,8.5
Plésidy,22189,22720,2,Callac,CA Guingamp-Paimpol Agglomération de l'Armor à l'Argoat,562,48.44778,-3.12167,200,26.25
Pleslin-Trigavou,22190,22490,1,Pleslin-Trigavou,CA Dinan Agglomération,4043,48.53417,-2.05583,72,21.98
Plestan,22193,22640,4,Plénée-Jugon,CA Lamballe Terre et Mer,1637,48.42222,-2.44583,96,33.44
Plestin-les-Grèves,22194,22310,3,Plestin-les-Grèves,CA Lannion-Trégor Communauté,3649,48.65639,-3.62944,40,34.52
Pleubian,22195,22610,3,Tréguier,CA Lannion-Trégor Communauté,2334,48.84028,-3.13639,40,20.26
Pleudaniel,22196,22740,3,Tréguier,CA Lannion-Trégor Communauté,925,48.76778,-3.14,48,18.82
Pleudihen-sur-Rance,22197,22690,1,Lanvallay,CA Dinan Agglomération,2974,48.51056,-1.95028,50,24.98
Pleumeur-Bodou,22198,22560,3,Perros-Guirec,CA Lannion-Trégor Communauté,3828,48.77333,-3.51667,90,27.53
Pleumeur-Gautier,22199,22740,3,Tréguier,CA Lannion-Trégor Communauté,1186,48.80305,-3.15833,80,19.37
Plévenon,22201,22240,1,Pléneuf-Val-André,CA Dinan Agglomération,757,48.65429,-2.33205,0,0.0
Plévin,22202,22340,2,Rostrenen,CC Poher Communauté,754,48.22639,-3.50361,201,27.95
Ploëzal,22204,22260,2,Bégard,CA Guingamp-Paimpol Agglomération de l'Armor à l'Argoat,1227,48.71472,-3.20444,75,26.9
Plorec-sur-Arguenon,22205,22130,1,Plancoët,CA Dinan Agglomération,445,48.47972,-2.29583,78,13.84
Plouaret,22207,22420,3,Plestin-les-Grèves,CA Lannion-Trégor Communauté,2230,48.61167,-3.47194,120,30.68
Plouasne,22208,22830,1,Lanvallay,CA Dinan Agglomération,1749,48.30111,-2.00639,60,34.54
Ploubazlanec,22210,22620,2,Paimpol,CA Guingamp-Paimpol Agglomération de l'Armor à l'Argoat,2985,48.79917,-3.03194,60,15.52
Ploubezre,22211,22300,3,Plestin-les-Grèves,CA Lannion-Trégor Communauté,3741,48.70444,-3.44778,89,31.09
Plouëc-du-Trieux,22212,22260,2,Bégard,CA Guingamp-Paimpol Agglomération de l'Armor à l'Argoat,1140,48.675,-3.19028,92,18.63
Plouër-sur-Rance,22213,22490,1,Pleslin-Trigavou,CA Dinan Agglomération,3423,48.52806,-2.00333,50,20.14
Plouézec,22214,22470,2,Paimpol,CA Guingamp-Paimpol Agglomération de l'Armor à l'Argoat,3129,48.74833,-2.98194,100,28.55
Ploufragan,22215,22440,4,Ploufragan,CA Saint-Brieuc Armor Agglomération,11347,48.48972,-2.79778,140,26.4
Plougonver,22216,22810,2,Callac,CA Guingamp-Paimpol Agglomération de l'Armor à l'Argoat,766,48.48417,-3.37972,220,36.45
Plougras,22217,22780,3,Plestin-les-Grèves,CA Lannion-Trégor Communauté,428,48.50972,-3.56222,220,26.95
Plougrescant,22218,22820,3,Tréguier,CA Lannion-Trégor Communauté,1198,48.84472,-3.23,53,16.4
Plouguenast-Langast,22219,22150,4,Guerlédan,CC Loudéac Communauté - Bretagne Centre,2390,48.28194,-2.70278,147,34.99
Plouguernével,22220,22110,2,Rostrenen,CC du Kreiz-Breizh (CCKB),1602,48.23944,-3.25028,210,41.81
Plouguiel,22221,22220,3,Tréguier,CA Lannion-Trégor Communauté,1745,48.79639,-3.2375,60,19.82
Plouha,22222,22580,2,Plouha,CC Leff Armor Communauté,4677,48.675,-2.92694,100,41.34
Plouisy,22223,22200,2,Guingamp,CA Guingamp-Paimpol Agglomération de l'Armor à l'Argoat,2013,48.57833,-3.18333,130,24.04
Ploulec'h,22224,22300,3,Lannion,CA Lannion-Trégor Communauté,1591,48.71806,-3.50278,98,10.21
Ploumagoar,22225,22970,2,Guingamp,CA Guingamp-Paimpol Agglomération de l'Armor à l'Argoat,5418,48.54611,-3.13083,110,32.17
Ploumilliau,22226,22300,3,Plestin-les-Grèves,CA Lannion-Trégor Communauté,2460,48.67944,-3.52333,119,35.07
Plounérin,22227,22780,3,Plestin-les-Grèves,CA Lannion-Trégor Communauté,799,48.56583,-3.54139,200,26.36
Plounévez-Moëdec,22228,22810,3,Plestin-les-Grèves,CA Lannion-Trégor Communauté,1473,48.55611,-3.44389,210,41.14
Plounévez-Quintin,22229,22110,2,Rostrenen,CC du Kreiz-Breizh (CCKB),1057,48.28944,-3.23083,180,43.48
Plourac'h,22231,22160,2,Callac,CA Guingamp-Paimpol Agglomération de l'Armor à l'Argoat,350,48.41528,-3.54722,220,32.57
Plourhan,22232,22410,4,Plouha,CA Saint-Brieuc Armor Agglomération,2137,48.63028,-2.86861,76,17.23
Plourivo,22233,22860,2,Paimpol,CA Guingamp-Paimpol Agglomération de l'Armor à l'Argoat,2267,48.74472,-3.07,70,29.14
Plouvara,22234,22170,2,Plélo,CC Leff Armor Communauté,1149,48.50694,-2.91556,160,23.07
Plouzélambre,22235,22420,3,Plestin-les-Grèves,CA Lannion-Trégor Communauté,202,48.64472,-3.54306,100,7.81
Pludual,22236,22290,2,Plouha,CC Leff Armor Communauté,737,48.66583,-2.98139,60,9.63
Plufur,22238,22310,3,Plestin-les-Grèves,CA Lannion-Trégor Communauté,533,48.60861,-3.575,130,17.48
Plumaudan,22239,22350,1,Broons,CA Dinan Agglomération,1403,48.35833,-2.12444,80,19.14
Plumaugat,22240,22250,1,Broons,CA Dinan Agglomération,1156,48.25611,-2.23583,110,43.83
Plumieux,22241,22210,4,Loudéac,CC Loudéac Communauté - Bretagne Centre,1654,48.10167,-2.58167,137,39.85
Plurien,22242,22240,4,Pléneuf-Val-André,CA Lamballe Terre et Mer,1513,48.62667,-2.40306,45,21.74
Plusquellec,22243,22160,2,Callac,CA Guingamp-Paimpol Agglomération de l'Armor à l'Argoat,557,48.38445,-3.485,165,26.78
Plussulien,22244,22320,4,Guerlédan,CC Loudéac Communauté - Bretagne Centre,507,48.2825,-3.07056,200,22.79
Pluzunet,22245,22140,3,Bégard,CA Lannion-Trégor Communauté,984,48.64139,-3.36917,110,23.54
Plœuc-l'Hermitage,22203,22150,4,Plaintel,CA Saint-Brieuc Armor Agglomération,4117,48.34778,-2.75417,206,45.55
Pommeret,22246,22120,4,Lamballe-Armor,CA Lamballe Terre et Mer,2119,48.46305,-2.62528,69,13.62
Pommerit-le-Vicomte,22248,22200,2,Guingamp,CC Leff Armor Communauté,1842,48.61889,-3.08639,100,33.56
Pont-Melvez,22249,22390,2,Callac,CA Guingamp-Paimpol Agglomération de l'Armor à l'Argoat,600,48.46139,-3.30639,240,23.49
Pontrieux,22250,22260,2,Bégard,CA Guingamp-Paimpol Agglomération de l'Armor à l'Argoat,1004,48.69611,-3.15722,10,1.07
Pordic,22251,22590,4,Plérin,CA Saint-Brieuc Armor Agglomération,7393,48.56972,-2.81917,100,28.91
Prat,22254,22140,3,Bégard,CA Lannion-Trégor Communauté,1090,48.67639,-3.29694,80,22.3
la Prénessaye,22255,22210,4,Loudéac,CC Loudéac Communauté - Bretagne Centre,870,48.18222,-2.63417,109,17.26
Quemper-Guézennec,22256,22260,2,Bégard,CA Guingamp-Paimpol Agglomération de l'Armor à l'Argoat,1089,48.70306,-3.10444,70,23.4
Quemperven,22257,22450,3,Bégard,CA Lannion-Trégor Communauté,416,48.72445,-3.32028,60,7.98
Quessoy,22258,22120,4,Plaintel,CA Lamballe Terre et Mer,3930,48.42111,-2.65639,90,30.21
Quévert,22259,22100,1,Dinan,CA Dinan Agglomération,3963,48.46528,-2.08722,95,12.78
le Quillio,22260,22460,4,Guerlédan,CC Loudéac Communauté - Bretagne Centre,591,48.24167,-2.88,180,16.49
Quintenic,22261,22400,4,Lamballe-Armor,CA Lamballe Terre et Mer,364,48.51639,-2.425,70,7.53
Quintin,22262,22800,4,Plélo,CA Saint-Brieuc Armor Agglomération,2743,48.40445,-2.91139,180,3.15
le Quiou,22263,22630,1,Lanvallay,CA Dinan Agglomération,355,48.35194,-2.00583,30,5.25
Rospez,22265,22300,3,Lannion,CA Lannion-Trégor Communauté,1790,48.72833,-3.38389,80,13.43
Rostrenen,22266,22110,2,Rostrenen,CC du Kreiz-Breizh (CCKB),3282,48.23611,-3.31556,237,32.29
Rouillac,22267,22250,4,Broons,CA Lamballe Terre et Mer,402,48.30944,-2.36472,150,16.11
Ruca,22268,22550,1,Pléneuf-Val-André,CA Dinan Agglomération,596,48.56889,-2.33917,50,12.33
Runan,22269,22260,2,Bégard,CA Guingamp-Paimpol Agglomération de l'Armor à l'Argoat,253,48.69361,-3.21389,90,5.26
Saint-Adrien,22271,22390,2,Callac,CA Guingamp-Paimpol Agglomération de l'Armor à l'Argoat,367,48.48861,-3.13417,190,10.07
Saint-Agathon,22272,22200,2,Guingamp,CA Guingamp-Paimpol Agglomération de l'Armor à l'Argoat,2202,48.55889,-3.10444,110,14.68
Saint-Alban,22273,22400,4,Pléneuf-Val-André,CA Lamballe Terre et Mer,2376,48.55722,-2.53167,90,30.55
Saint-André-des-Eaux,22274,22630,1,Lanvallay,CA Dinan Agglomération,395,48.37167,-2.00694,21,5.57
Saint-Barnabé,22275,22600,4,Loudéac,CC Loudéac Communauté - Bretagne Centre,1219,48.13722,-2.70194,140,23.23
Saint-Bihy,22276,22800,4,Plélo,CA Saint-Brieuc Armor Agglomération,261,48.37861,-2.96889,240,8.42
Saint-Brandan,22277,22800,4,Plélo,CA Saint-Brieuc Armor Agglomération,2285,48.38972,-2.86889,200,25.46
Saint-Brieuc [3],22278,22000,4,Saint-Brieuc,CA Saint-Brieuc Armor Agglomération,44607,48.51417,-2.77306,100,19.47
Saint-Caradec,22279,22600,4,Guerlédan,CC Loudéac Communauté - Bretagne Centre,1132,48.19278,-2.84778,102,22.05
Saint-Carné,22280,22100,1,Lanvallay,CA Dinan Agglomération,1140,48.41667,-2.06417,100,8.57
Saint-Carreuc,22281,22150,4,Plaintel,CA Saint-Brieuc Armor Agglomération,1554,48.39861,-2.73083,200,13.17
Saint-Cast-le-Guildo,22282,22380,1,Pléneuf-Val-André,CA Dinan Agglomération,3353,48.62278,-2.26028,11,22.9
Saint-Clet,22283,22260,2,Bégard,CA Guingamp-Paimpol Agglomération de l'Armor à l'Argoat,868,48.66389,-3.1325,89,14.86
Saint-Connan,22284,22480,2,Rostrenen,CC du Kreiz-Breizh (CCKB),297,48.41667,-3.06222,210,13.68
Saint-Connec,22285,22530,4,Guerlédan,CC Pontivy Communauté,258,48.17722,-2.92,140,11.28
Saint-Denoual,22286,22400,4,Pléneuf-Val-André,CA Lamballe Terre et Mer,490,48.52722,-2.39972,60,8.66
Saint-Donan,22287,22800,4,Ploufragan,CA Saint-Brieuc Armor Agglomération,1467,48.47055,-2.88472,180,22.9
Saint-Étienne-du-Gué-de-l'Isle,22288,22210,4,Loudéac,CC Loudéac Communauté - Bretagne Centre,372,48.10472,-2.64167,80,15.34
Saint-Fiacre,22289,22720,2,Plélo,CC Leff Armor Communauté,212,48.46167,-3.06222,170,9.83
Saint-Gildas,22291,22800,4,Plélo,CA Saint-Brieuc Armor Agglomération,242,48.4225,-3.0025,240,16.03
Saint-Gilles-les-Bois,22293,22290,2,Plouha,CC Leff Armor Communauté,389,48.65278,-3.10389,97,9.66
Saint-Gilles-Pligeaux,22294,22480,2,Rostrenen,CC du Kreiz-Breizh (CCKB),304,48.37944,-3.09528,260,19.89
Saint-Gilles-Vieux-Marché,22295,22530,4,Guerlédan,CC Loudéac Communauté - Bretagne Centre,315,48.24306,-2.97389,190,22.22
Saint-Glen,22296,22510,4,Plénée-Jugon,CA Lamballe Terre et Mer,667,48.36,-2.52333,150,11.17
Saint-Hélen,22299,22100,1,Lanvallay,CA Dinan Agglomération,1535,48.47222,-1.95556,73,17.24
Saint-Hervé,22300,22460,4,Guerlédan,CC Loudéac Communauté - Bretagne Centre,413,48.27667,-2.82417,180,10.01
Saint-Igeaux,22334,22570,2,Rostrenen,CC du Kreiz-Breizh (CCKB),124,48.2725,-3.10389,200,12.92
Saint-Jacut-de-la-Mer,22302,22750,1,Plancoët,CA Dinan Agglomération,909,48.6,-2.18889,31,2.99
Saint-Jean-Kerdaniel,22304,22170,2,Plélo,CC Leff Armor Communauté,691,48.56417,-3.02083,120,11.14
Saint-Jouan-de-l'Isle,22305,22350,1,Broons,CA Dinan Agglomération,456,48.26694,-2.15861,100,8.38
Saint-Judoce,22306,22630,1,Lanvallay,CA Dinan Agglomération,590,48.36333,-1.95306,31,10.47
Saint-Julien,22307,22940,4,Ploufragan,CA Saint-Brieuc Armor Agglomération,2072,48.45167,-2.81472,160,5.6
Saint-Juvat,22308,22630,1,Lanvallay,CA Dinan Agglomération,649,48.35417,-2.04194,45,18.06
Saint-Laurent,22310,22140,2,Bégard,CA Guingamp-Paimpol Agglomération de l'Armor à l'Argoat,533,48.62056,-3.2325,115,8.98
Saint-Lormel,22311,22130,1,Plancoët,CA Dinan Agglomération,883,48.54528,-2.22861,40,10.14
Saint-Maden,22312,22350,1,Broons,CA Dinan Agglomération,220,48.33028,-2.07556,40,6.78
Saint-Martin-des-Prés,22313,22320,4,Guerlédan,CC Loudéac Communauté - Bretagne Centre,321,48.30806,-2.95472,190,20.72
Saint-Maudan,22314,22600,4,Loudéac,CC Loudéac Communauté - Bretagne Centre,399,48.11333,-2.7725,98,6.82
Saint-Maudez,22315,22980,1,Plancoët,CA Dinan Agglomération,285,48.45333,-2.17972,100,5.3
Saint-Mayeux,22316,22320,4,Guerlédan,CC Loudéac Communauté - Bretagne Centre,460,48.25611,-3.00417,270,30.86
Saint-Méloir-des-Bois,22317,22980,1,Plancoët,CA Dinan Agglomération,272,48.45694,-2.24806,80,6.42
Saint-Michel-de-Plélan,22318,22980,1,Plancoët,CA Dinan Agglomération,320,48.46639,-2.21167,69,7.73
Saint-Michel-en-Grève,22319,22300,3,Plestin-les-Grèves,CA Lannion-Trégor Communauté,447,48.68417,-3.56444,20,4.66
Saint-Nicodème,22320,22160,2,Callac,CA Guingamp-Paimpol Agglomération de l'Armor à l'Argoat,168,48.34333,-3.33833,270,17.25
Saint-Nicolas-du-Pélem,22321,22480,2,Rostrenen,CC du Kreiz-Breizh (CCKB),1536,48.31389,-3.15972,180,41.56
Saint-Péver,22322,22720,2,Plélo,CC Leff Armor Communauté,388,48.48139,-3.10194,160,13.22
Saint-Pôtan,22323,22550,1,Pléneuf-Val-André,CA Dinan Agglomération,833,48.55722,-2.29,55,20.08
Saint-Quay-Perros,22324,22700,3,Perros-Guirec,CA Lannion-Trégor Communauté,1289,48.78861,-3.44583,30,4.75
Saint-Quay-Portrieux,22325,22410,4,Plouha,CA Saint-Brieuc Armor Agglomération,3253,48.65278,-2.83361,30,3.95
Saint-Rieul,22326,22270,4,Lamballe-Armor,CA Lamballe Terre et Mer,548,48.44361,-2.415,90,6.48
Saint-Samson-sur-Rance,22327,22100,1,Pleslin-Trigavou,CA Dinan Agglomération,1630,48.49333,-2.02861,65,6.39
Saint-Servais,22328,22160,2,Callac,CA Guingamp-Paimpol Agglomération de l'Armor à l'Argoat,427,48.38611,-3.3875,163,28.38
Saint-Thélo,22330,22460,4,Guerlédan,CC Loudéac Communauté - Bretagne Centre,377,48.22944,-2.85222,123,14.68
Saint-Trimoël,22332,22510,4,Plénée-Jugon,CA Lamballe Terre et Mer,521,48.38583,-2.5475,110,8.57
Saint-Vran,22333,22230,4,Broons,CC Loudéac Communauté - Bretagne Centre,755,48.23861,-2.44028,210,28.24
Sainte-Tréphine,22331,22480,2,Rostrenen,CC du Kreiz-Breizh (CCKB),187,48.26917,-3.15333,150,12.75
Senven-Léhart,22335,22720,2,Callac,CA Guingamp-Paimpol Agglomération de l'Armor à l'Argoat,241,48.42444,-3.06917,200,12.65
Sévignac,22337,22250,4,Broons,CA Lamballe Terre et Mer,1116,48.33278,-2.3375,64,44.02
Squiffiec,22338,22200,2,Bégard,CA Guingamp-Paimpol Agglomération de l'Armor à l'Argoat,752,48.62833,-3.15278,100,10.86
Taden,22339,22100,1,Pleslin-Trigavou,CA Dinan Agglomération,2599,48.47556,-2.01694,46,20.31
Tonquédec,22340,22140,3,Bégard,CA Lannion-Trégor Communauté,1201,48.67,-3.39556,90,18.51
Tramain,22341,22640,4,Plénée-Jugon,CA Lamballe Terre et Mer,700,48.40139,-2.39972,100,9.41
Trébédan,22342,22980,1,Plancoët,CA Dinan Agglomération,439,48.39972,-2.17167,100,11.22
Trébeurden,22343,22560,3,Perros-Guirec,CA Lannion-Trégor Communauté,3821,48.76972,-3.56306,81,13.88
Trébrivan,22344,22340,2,Rostrenen,CC du Kreiz-Breizh (CCKB),763,48.30806,-3.47389,170,23.09
Trébry,22345,22510,4,Plénée-Jugon,CA Lamballe Terre et Mer,822,48.35611,-2.55194,150,25.53
Trédaniel,22346,22510,4,Plaintel,CA Lamballe Terre et Mer,896,48.35889,-2.61611,150,15.92
Trédarzec,22347,22220,3,Tréguier,CA Lannion-Trégor Communauté,1069,48.78667,-3.19917,59,11.95
Trédias,22348,22250,4,Broons,CA Lamballe Terre et Mer,504,48.35722,-2.23583,70,11.28
Trédrez-Locquémeau,22349,22300,3,Plestin-les-Grèves,CA Lannion-Trégor Communauté,1468,48.69944,-3.56528,90,10.75
Tréduder,22350,22310,3,Plestin-les-Grèves,CA Lannion-Trégor Communauté,201,48.65055,-3.56278,90,4.82
Treffrin,22351,22340,2,Rostrenen,CC Poher Communauté,524,48.3,-3.51667,140,7.51
Tréfumel,22352,22630,1,Lanvallay,CA Dinan Agglomération,279,48.33889,-2.02444,24,5.98
Trégastel,22353,22730,3,Perros-Guirec,CA Lannion-Trégor Communauté,2532,48.80944,-3.49778,50,7.18
Tréglamus,22354,22540,2,Callac,CA Guingamp-Paimpol Agglomération de l'Armor à l'Argoat,1100,48.55722,-3.27556,210,19.31
Trégomeur,22356,22590,2,Plélo,CC Leff Armor Communauté,947,48.5675,-2.88083,90,10.77
Trégonneau,22358,22200,2,Bégard,CA Guingamp-Paimpol Agglomération de l'Armor à l'Argoat,523,48.61278,-3.16333,110,6.27
Trégrom,22359,22420,3,Plestin-les-Grèves,CA Lannion-Trégor Communauté,447,48.60028,-3.40528,110,16.83
Trégueux,22360,22950,4,Trégueux,CA Saint-Brieuc Armor Agglomération,8462,48.48944,-2.73556,112,14.94
Tréguidel,22361,22290,2,Plouha,CC Leff Armor Communauté,630,48.6025,-2.94056,103,6.63
Tréguier,22362,22220,3,Tréguier,CA Lannion-Trégor Communauté,2349,48.78472,-3.23,45,1.68
Trélévern,22363,22660,3,Perros-Guirec,CA Lannion-Trégor Communauté,1240,48.80889,-3.37194,76,7.08
Trélivan,22364,22100,1,Dinan,CA Dinan Agglomération,2875,48.43195,-2.12,97,11.33
Trémargat,22365,22110,2,Rostrenen,CC du Kreiz-Breizh (CCKB),182,48.33139,-3.26583,260,13.95
Trémel,22366,22310,3,Plestin-les-Grèves,CA Lannion-Trégor Communauté,406,48.6025,-3.61028,120,11.88
Tréméreuc,22368,22490,1,Pleslin-Trigavou,CC Côte d'Emeraude,728,48.55806,-2.06222,68,4.12
Trémeur,22369,22250,4,Broons,CA Lamballe Terre et Mer,806,48.34694,-2.26167,60,14.9
Tréméven,22370,22290,2,Plouha,CC Leff Armor Communauté,355,48.67361,-3.02778,60,5.24
Trémorel,22371,22230,4,Broons,CC Loudéac Communauté - Bretagne Centre,1154,48.2,-2.28694,120,33.97
Trémuson,22372,22440,4,Plérin,CA Saint-Brieuc Armor Agglomération,2238,48.52167,-2.84778,140,6.31
Tréogan,22373,22340,2,Rostrenen,CC Poher Communauté,107,48.18833,-3.52028,214,7.15
Tressignaux,22375,22290,2,Plouha,CC Leff Armor Communauté,682,48.61778,-2.98444,75,7.41
Trévé,22376,22600,4,Guerlédan,CC Loudéac Communauté - Bretagne Centre,1680,48.21278,-2.79333,159,26.71
Tréveneuc,22377,22410,4,Plouha,CA Saint-Brieuc Armor Agglomération,813,48.66472,-2.86917,50,6.69
Trévérec,22378,22290,2,Plouha,CC Leff Armor Communauté,224,48.65583,-3.05667,90,4.36
Trévou-Tréguignec,22379,22660,3,Perros-Guirec,CA Lannion-Trégor Communauté,1581,48.81222,-3.35583,50,6.69
Trévron,22380,22100,1,Lanvallay,CA Dinan Agglomération,681,48.39167,-2.06167,60,9.87
Trézény,22381,22450,3,Tréguier,CA Lannion-Trégor Communauté,355,48.75611,-3.36667,100,3.28
Troguéry,22383,22450,3,Tréguier,CA Lannion-Trégor Communauté,219,48.75444,-3.22556,40,3.65
Uzel,22384,22460,4,Guerlédan,CC Loudéac Communauté - Bretagne Centre,1134,48.27945,-2.84083,210,6.97
Val-d'Arguenon,22237,22130,1,Plancoët,CA Dinan Agglomération,2814,48.53111,-2.26778,69,28.91
la Vicomté-sur-Rance,22385,22690,1,Pleslin-Trigavou,CA Dinan Agglomération,1142,48.48806,-1.98028,40,4.66
le Vieux-Bourg,22386,22800,4,Plélo,CA Saint-Brieuc Armor Agglomération,760,48.3875,-2.99806,260,25.71
le Vieux-Marché,22387,22420,3,Plestin-les-Grèves,CA Lannion-Trégor Communauté,1276,48.60639,-3.44667,120,22.37
Vildé-Guingalan,22388,22980,1,Dinan,CA Dinan Agglomération,1294,48.43889,-2.15556,93,7.57
Yffiniac,22389,22120,4,Trégueux,CA Saint-Brieuc Armor Agglomération,4980,48.48528,-2.67528,10,17.42
Yvias,22390,22930,2,Paimpol,CA Guingamp-Paimpol Agglomération de l'Armor à l'Argoat,770,48.71472,-3.05028,72,11.74
Yvignac-la-Tour,22391,22350,1,Broons,CA Dinan Agglomération,1106,48.34833,-2.17472,90,36.45
Argol,29001,29560,2,Crozon,CC Presqu'île de Crozon-Aulne maritime,1043,48.24556,-4.31528,70,31.65
Arzano,29002,29300,4,Quimperlé,CA Quimperlé Communauté,1440,47.90083,-3.44139,92,33.91
Audierne,29003,29770,4,Douarnenez,CC Cap Sizun - Pointe du Raz,3708,48.02194,-4.54111,34,3.02
Bannalec,29004,29380,4,Moëlan-sur-Mer,CA Quimperlé Communauté,5707,47.93028,-3.69778,100,78.24
Baye,29005,29300,4,Quimperlé,CA Quimperlé Communauté,1363,47.8575,-3.60361,65,7.29
Bénodet,29006,29950,4,Fouesnant,CC du Pays Fouesnantais,3878,47.87611,-4.11194,12,10.32
Berrien,29007,29690,2,Carhaix-Plouguer,CC Monts d'Arrée Communauté,920,48.40222,-3.75056,261,56.05
Beuzec-Cap-Sizun,29008,29790,4,Douarnenez,CC Cap Sizun - Pointe du Raz,1018,48.07556,-4.51,80,35.1
Bodilis,29010,29400,3,Landivisiau,CC du Pays de Landivisiau,1700,48.53083,-4.11333,117,20.07
Bohars,29011,29820,1,Brest-4,Brest Métropole,3671,48.42917,-4.51222,60,7.36
Bolazec,29012,29640,2,Carhaix-Plouguer,CC Monts d'Arrée Communauté,172,48.445,-3.58417,240,17.63
Botmeur,29013,29690,2,Carhaix-Plouguer,CC Monts d'Arrée Communauté,227,48.38333,-3.91472,261,14.37
Botsorhel,29014,29650,3,Plouigneau,CA Morlaix Communauté,428,48.52583,-3.64083,200,25.63
Bourg-Blanc,29015,29860,1,Plabennec,CC du Pays des Abers,3544,48.5,-4.50278,70,28.82
Brasparts,29016,29190,2,Carhaix-Plouguer,CC Monts d'Arrée Communauté,1055,48.30111,-3.95472,130,47.22
Brélès,29017,29810,1,Saint-Renan,CC du Pays d'Iroise,867,48.47778,-4.71222,50,13.92
Brennilis,29018,29690,2,Carhaix-Plouguer,CC Monts d'Arrée Communauté,447,48.35861,-3.85139,253,20.38
Brest,29019,29200,1,Brest,Brest Métropole,140993,48.38778,-4.49028,50,49.12
Briec,29020,29510,4,Briec,CA Quimper Bretagne Occidentale,5815,48.10194,-4.00083,140,67.59
Camaret-sur-Mer,29022,29570,2,Crozon,CC Presqu'île de Crozon-Aulne maritime,2448,48.27444,-4.59639,20,13.22
Carantec,29023,29660,3,Morlaix,CA Morlaix Communauté,3261,48.67028,-3.91472,40,9.29
Carhaix-Plouguer,29024,29270,2,Carhaix-Plouguer,CC Poher Communauté,7326,48.27639,-3.57167,130,25.9
Cast,29025,29150,2,Crozon,CC Pleyben-Châteaulin-Porzay,1557,48.1575,-4.1375,103,37.42
Châteaulin,29026,29150,2,Crozon,CC Pleyben-Châteaulin-Porzay,5106,48.19528,-4.09139,40,20.14
Châteauneuf-du-Faou,29027,29520,2,Briec,CC de Haute Cornouaille,3646,48.18945,-3.81389,100,42.12
Cléden-Cap-Sizun,29028,29770,4,Douarnenez,CC Cap Sizun - Pointe du Raz,912,48.04722,-4.64694,50,19.37
Cléden-Poher,29029,29270,2,Carhaix-Plouguer,CC Poher Communauté,1135,48.23444,-3.66778,150,30.24
Cléder,29030,29233,3,Saint-Pol-de-Léon,CC Haut-Léon Communauté,3582,48.6625,-4.1,40,37.71
Clohars-Carnoët,29031,29360,4,Quimperlé,CA Quimperlé Communauté,4701,47.79694,-3.58083,50,35.17
Clohars-Fouesnant,29032,29950,4,Fouesnant,CC du Pays Fouesnantais,2152,47.89667,-4.06472,50,12.92
le Cloître-Pleyben,29033,29190,2,Briec,CC Pleyben-Châteaulin-Porzay,508,48.25778,-3.88972,150,20.45
le Cloître-Saint-Thégonnec,29034,29410,3,Plouigneau,CA Morlaix Communauté,644,48.48056,-3.79278,213,28.64
Coat-Méal,29035,29870,1,Plabennec,CC du Pays des Abers,1135,48.50889,-4.54111,60,10.69
Collorec,29036,29530,2,Carhaix-Plouguer,CC de Haute Cornouaille,592,48.28556,-3.77361,137,28.16
Combrit,29037,29120,4,Plonéour-Lanvern,CC du Pays Bigouden Sud,4271,47.88667,-4.15583,35,24.04
Commana,29038,29450,3,Landivisiau,CC du Pays de Landivisiau,994,48.41361,-3.95667,250,40.28
Concarneau,29039,29900,4,Concarneau,CA Concarneau Cornouaille Agglomération,20632,47.87444,-3.92028,3,41.07
Confort-Meilars,29145,29790,4,Douarnenez,CC Cap Sizun - Pointe du Raz,860,48.04333,-4.42694,50,14.8
le Conquet,29040,29217,1,Saint-Renan,CC du Pays d'Iroise,2814,48.36,-4.77306,29,8.86
Coray,29041,29370,2,Briec,CC de Haute Cornouaille,1869,48.06083,-3.83056,220,31.6
Crozon,29042,29160,2,Crozon,CC Presqu'île de Crozon-Aulne maritime,7410,48.2475,-4.48861,70,80.66
Daoulas,29043,29460,1,Pont-de-Buis-lès-Quimerch,CA du Pays de Landerneau-Daoulas,1835,48.36167,-4.25889,10,5.69
Dinéault,29044,29150,2,Crozon,CC Pleyben-Châteaulin-Porzay,1858,48.21972,-4.16556,100,45.27
Dirinon,29045,29460,1,Pont-de-Buis-lès-Quimerch,CA du Pays de Landerneau-Daoulas,2195,48.39694,-4.26778,130,32.93
Douarnenez,29046,29100,4,Douarnenez,CC Douarnenez Communauté,14188,48.09611,-4.33056,48,25.58
le Drennec,29047,29860,1,Lesneven,CC du Pays des Abers,1911,48.5325,-4.36972,60,9.63
Edern,29048,29510,4,Briec,CA Quimper Bretagne Occidentale,2199,48.10194,-3.97833,138,40.22
Elliant,29049,29370,4,Concarneau,CA Concarneau Cornouaille Agglomération,3379,47.99583,-3.88917,120,70.53
Ergué-Gabéric,29051,29500,4,Fouesnant,CA Quimper Bretagne Occidentale,8576,47.99667,-4.02556,60,39.7
le Faou,29053,29590,2,Pont-de-Buis-lès-Quimerch,CC Presqu'île de Crozon-Aulne maritime,1882,48.29472,-4.17861,15,11.94
la Feuillée,29054,29690,2,Carhaix-Plouguer,CC Monts d'Arrée Communauté,684,48.39167,-3.85167,270,31.59
le Folgoët,29055,29260,1,Lesneven,CC Communauté Lesneven Côte des Légendes,3290,48.55972,-4.33694,70,9.8
la Forest-Landerneau,29056,29800,1,Landerneau,CA du Pays de Landerneau-Daoulas,1999,48.42778,-4.31167,60,9.28
la Forêt-Fouesnant,29057,29940,4,Fouesnant,CC du Pays Fouesnantais,3485,47.9075,-3.97972,20,18.74
Fouesnant,29058,29170,4,Fouesnant,CC du Pays Fouesnantais,10204,47.89333,-4.01,60,32.46
Garlan,29059,29610,3,Plouigneau,CA Morlaix Communauté,1063,48.60167,-3.75639,80,13.37
Gouesnach,29060,29950,4,Fouesnant,CC du Pays Fouesnantais,2765,47.91195,-4.11417,40,17.16
Gouesnou,29061,29850,1,Brest-4,Brest Métropole,6412,48.4525,-4.46333,80,12.22
Gouézec,29062,29190,2,Briec,CC Pleyben-Châteaulin-Porzay,1115,48.17028,-3.97306,100,31.01
Goulien,29063,29770,4,Douarnenez,CC Cap Sizun - Pointe du Raz,440,48.05583,-4.59167,77,12.96
Goulven,29064,29890,1,Lesneven,CC Communauté Lesneven Côte des Légendes,439,48.62806,-4.29833,20,6.57
Gourlizon,29065,29710,4,Plonéour-Lanvern,CC du Haut Pays Bigouden,950,48.01972,-4.26444,125,9.89
Guengat,29066,29180,4,Quimper-1,CA Quimper Bretagne Occidentale,1836,48.04139,-4.20333,133,22.94
Guerlesquin,29067,29650,3,Plouigneau,CA Morlaix Communauté,1259,48.5175,-3.58667,200,22.08
Guiclan,29068,29410,3,Landivisiau,CC du Pays de Landivisiau,2564,48.55167,-3.96167,100,42.98
Guiler-sur-Goyen,29070,29710,4,Plonéour-Lanvern,CC du Haut Pays Bigouden,521,48.01611,-4.35778,89,11.38
Guilers,29069,29820,1,Brest-4,Brest Métropole,8221,48.42611,-4.55667,95,18.9
Guilligomarc'h,29071,29300,4,Quimperlé,CA Quimperlé Communauté,804,47.93667,-3.41361,102,23.04
Guilvinec,29072,29730,4,Pont-l'Abbé,CC du Pays Bigouden Sud,2677,47.79694,-4.285,14,2.4
Guimaëc,29073,29620,3,Plouigneau,CA Morlaix Communauté,966,48.66778,-3.70778,90,19.02
Guimiliau,29074,29400,3,Landivisiau,CC du Pays de Landivisiau,1000,48.48861,-3.99917,126,11.25
Guipavas,29075,29490,1,Guipavas,Brest Métropole,15401,48.43611,-4.39806,99,43.92
Guissény,29077,29880,1,Lesneven,CC Communauté Lesneven Côte des Légendes,1974,48.63417,-4.40778,22,25.32
Hanvec,29078,29460,1,Pont-de-Buis-lès-Quimerch,CA du Pays de Landerneau-Daoulas,2035,48.32667,-4.15778,100,59.82
Henvic,29079,29670,3,Morlaix,CA Morlaix Communauté,1195,48.63333,-3.92778,60,9.96
Hôpital-Camfrout,29080,29460,1,Pont-de-Buis-lès-Quimerch,CA du Pays de Landerneau-Daoulas,2220,48.32833,-4.23861,10,13.23
Huelgoat,29081,29690,2,Carhaix-Plouguer,CC Monts d'Arrée Communauté,1420,48.36194,-3.74528,200,14.83
Île-de-Batz,29082,29253,3,Saint-Pol-de-Léon,CC Haut-Léon Communauté,457,48.74278,-4.00417,20,3.41
Île-de-Sein,29083,29990,4,Douarnenez,,280,48.03556,-4.85111,5,0.6
Île-Molène,29084,29259,1,Saint-Renan,CC du Pays d'Iroise,166,48.39556,-4.95639,20,0.0
Île-Tudy,29085,29980,4,Plonéour-Lanvern,CC du Pays Bigouden Sud,745,47.84278,-4.16528,3,1.36
Irvillac,29086,29460,1,Pont-de-Buis-lès-Quimerch,CA du Pays de Landerneau-Daoulas,1427,48.37,-4.21,95,29.69
le Juch,29087,29100,4,Douarnenez,CC Douarnenez Communauté,753,48.06583,-4.25528,35,14.27
Kergloff,29089,29270,2,Carhaix-Plouguer,CC Poher Communauté,878,48.27555,-3.62056,103,24.98
Kerlaz,29090,29100,4,Douarnenez,CC Douarnenez Communauté,798,48.09111,-4.27111,80,11.75
Kerlouan,29091,29890,1,Lesneven,CC Communauté Lesneven Côte des Légendes,2028,48.645,-4.36361,20,17.99
Kernilis,29093,29260,1,Lesneven,CC Communauté Lesneven Côte des Légendes,1418,48.5725,-4.41833,65,10.16
Kernouës,29094,29260,1,Lesneven,CC Communauté Lesneven Côte des Légendes,660,48.59,-4.34694,60,7.74
Kersaint-Plabennec,29095,29860,1,Plabennec,CC du Pays des Abers,1537,48.4725,-4.37194,90,11.94
Lampaul-Guimiliau,29097,29400,3,Landivisiau,CC du Pays de Landivisiau,2004,48.4925,-4.03861,100,17.63
Lampaul-Plouarzel,29098,29810,1,Saint-Renan,CC du Pays d'Iroise,2176,48.44778,-4.75806,60,4.05
Lampaul-Ploudalmézeau,29099,29830,1,Plabennec,CC du Pays d'Iroise,815,48.56028,-4.65306,20,6.24
Lanarvily,29100,29260,1,Lesneven,CC Communauté Lesneven Côte des Légendes,406,48.55111,-4.38833,55,5.81
Landéda,29101,29870,1,Plabennec,CC du Pays des Abers,3695,48.58722,-4.57028,58,11.08
Landeleau,29102,29530,2,Carhaix-Plouguer,CC de Haute Cornouaille,982,48.22667,-3.73,105,30.29
Landerneau,29103,29800,1,Landerneau,CA du Pays de Landerneau-Daoulas,16327,48.45194,-4.25194,15,13.6
Landévennec,29104,29560,2,Crozon,CC Presqu'île de Crozon-Aulne maritime,335,48.29083,-4.26639,19,13.89
Landivisiau,29105,29400,3,Landivisiau,CC du Pays de Landivisiau,9197,48.51028,-4.06806,90,19.19
Landrévarzec,29106,29510,4,Briec,CA Quimper Bretagne Occidentale,1874,48.09139,-4.05528,100,20.55
Landudal,29107,29510,4,Briec,CA Quimper Bretagne Occidentale,910,48.06111,-3.97861,115,16.95
Landudec,29108,29710,4,Plonéour-Lanvern,CC du Haut Pays Bigouden,1477,48.00083,-4.33417,121,20.82
Landunvez,29109,29840,1,Plabennec,CC du Pays d'Iroise,1548,48.5325,-4.72583,33,14.89
Langolen,29110,29510,4,Briec,CA Quimper Bretagne Occidentale,839,48.06611,-3.91139,140,17.09
Lanhouarneau,29111,29430,3,Saint-Pol-de-Léon,CC Haut-Léon Communauté,1294,48.57917,-4.20917,94,18.04
Lanildut,29112,29840,1,Saint-Renan,CC du Pays d'Iroise,987,48.475,-4.75139,20,5.88
Lanmeur,29113,29620,3,Plouigneau,CA Morlaix Communauté,2367,48.64778,-3.71583,110,26.58
Lannéanou,29114,29640,3,Plouigneau,CA Morlaix Communauté,341,48.48861,-3.67,250,16.35
Lannédern,29115,29190,2,Briec,CC Pleyben-Châteaulin-Porzay,321,48.30167,-3.89694,160,12.32
Lanneuffret,29116,29400,1,Landerneau,CA du Pays de Landerneau-Daoulas,150,48.4975,-4.20028,80,2.24
Lannilis,29117,29870,1,Plabennec,CC du Pays des Abers,5712,48.57056,-4.52028,45,24.84
Lanrivoaré,29119,29290,1,Saint-Renan,CC du Pays d'Iroise,1539,48.47333,-4.63806,100,15.46
Lanvéoc,29120,29160,2,Crozon,CC Presqu'île de Crozon-Aulne maritime,1951,48.28667,-4.46,60,19.22
Laz,29122,29520,2,Briec,CC de Haute Cornouaille,684,48.13778,-3.83417,230,34.09
Lennon,29123,29190,2,Briec,CC Pleyben-Châteaulin-Porzay,801,48.19167,-3.89778,100,22.95
Lesneven,29124,29260,1,Lesneven,CC Communauté Lesneven Côte des Légendes,7471,48.57111,-4.32083,60,10.2
Leuhan,29125,29390,2,Briec,CC de Haute Cornouaille,836,48.09917,-3.78556,174,32.71
Loc-Brévalaire,29126,29260,1,Lesneven,CC du Pays des Abers,210,48.55278,-4.40389,60,1.69
Loc-Eguiner,29128,29400,3,Landivisiau,CC du Pays de Landivisiau,378,48.47278,-4.09417,130,12.13
Locmaria-Plouzané,29130,29280,1,Saint-Renan,CC du Pays d'Iroise,5160,48.37389,-4.64333,50,23.16
Locmélar,29131,29400,3,Landivisiau,CC du Pays de Landivisiau,476,48.45306,-4.06278,110,16.01
Locquénolé,29132,29670,3,Morlaix,CA Morlaix Communauté,792,48.62556,-3.86167,20,0.93
Locquirec,29133,29241,3,Plouigneau,CA Morlaix Communauté,1543,48.69194,-3.64611,10,6.31
Locronan,29134,29180,4,Quimper-1,CA Quimper Bretagne Occidentale,806,48.09833,-4.20667,152,7.98
Loctudy,29135,29750,4,Pont-l'Abbé,CC du Pays Bigouden Sud,4043,47.82972,-4.17111,8,13.36
Locunolé,29136,29310,4,Quimperlé,CA Quimperlé Communauté,1166,47.93667,-3.47694,102,16.89
Logonna-Daoulas,29137,29460,1,Pont-de-Buis-lès-Quimerch,CA du Pays de Landerneau-Daoulas,2127,48.32028,-4.29694,46,12.54
Lopérec,29139,29590,2,Carhaix-Plouguer,CC Monts d'Arrée Communauté,832,48.27667,-4.04722,40,40.05
Loperhet,29140,29470,1,Pont-de-Buis-lès-Quimerch,CA du Pays de Landerneau-Daoulas,3952,48.37333,-4.30444,62,20.63
Loqueffret,29141,29530,2,Carhaix-Plouguer,CC Monts d'Arrée Communauté,338,48.32083,-3.85806,210,27.76
Lothey,29142,29190,2,Briec,CC Pleyben-Châteaulin-Porzay,444,48.18056,-4.025,80,13.49
Mahalon,29143,29790,4,Douarnenez,CC Cap Sizun - Pointe du Raz,1010,48.03444,-4.43389,53,21.29
la Martyre,29144,29800,1,Pont-de-Buis-lès-Quimerch,CA du Pays de Landerneau-Daoulas,756,48.44889,-4.16028,185,18.36
Melgven,29146,29140,4,Concarneau,CA Concarneau Cornouaille Agglomération,3388,47.90667,-3.83417,92,51.29
Mellac,29147,29300,4,Quimperlé,CA Quimperlé Communauté,3371,47.90389,-3.57556,94,26.52
Mespaul,29148,29420,3,Saint-Pol-de-Léon,CC Haut-Léon Communauté,935,48.61833,-4.02222,70,11.6
Milizac-Guipronvel,29076,29290,1,Saint-Renan,CC du Pays d'Iroise,4733,48.49139,-4.57444,65,8.46
Moëlan-sur-Mer,29150,29350,4,Moëlan-sur-Mer,CA Quimperlé Communauté,6763,47.81417,-3.62889,53,47.43
Morlaix,29151,29600,3,Morlaix,CA Morlaix Communauté,15220,48.58083,-3.83,80,24.95
Motreff,29152,29270,2,Carhaix-Plouguer,CC Poher Communauté,679,48.2,-3.55389,220,21.42
Névez,29153,29920,4,Moëlan-sur-Mer,CA Concarneau Cornouaille Agglomération,2721,47.81861,-3.79083,39,25.62
Ouessant,29155,29242,1,Saint-Renan,,854,48.45861,-5.09389,20,0.0
Pencran,29156,29800,1,Landerneau,CA du Pays de Landerneau-Daoulas,2229,48.4375,-4.23361,160,8.97
Penmarch,29158,29760,4,Pont-l'Abbé,CC du Pays Bigouden Sud,5320,47.81083,-4.33583,6,16.46
Peumérit,29159,29710,4,Plonéour-Lanvern,CC du Haut Pays Bigouden,903,47.93917,-4.30806,80,19.7
Plabennec,29160,29860,1,Plabennec,CC du Pays des Abers,8633,48.50333,-4.425,87,50.6
Pleuven,29161,29170,4,Fouesnant,CC du Pays Fouesnantais,3298,47.90805,-4.04,60,13.75
Pleyben,29162,29190,2,Briec,CC Pleyben-Châteaulin-Porzay,3649,48.22389,-3.9675,100,75.96
Pleyber-Christ,29163,29410,3,Morlaix,CA Morlaix Communauté,3175,48.50555,-3.87472,130,45.83
Plobannalec-Lesconil,29165,29740,4,Pont-l'Abbé,CC du Pays Bigouden Sud,3694,47.82222,-4.22944,14,18.2
Ploéven,29166,29550,2,Crozon,CC Pleyben-Châteaulin-Porzay,534,48.15805,-4.23222,60,13.06
Plogastel-Saint-Germain,29167,29710,4,Plonéour-Lanvern,CC du Haut Pays Bigouden,2016,47.98278,-4.26861,100,31.59
Plogoff,29168,29770,4,Douarnenez,CC Cap Sizun - Pointe du Raz,1166,48.03667,-4.66472,62,12.0
Plogonnec,29169,29180,4,Quimper-1,CA Quimper Bretagne Occidentale,3223,48.0775,-4.19,129,53.78
Plomelin,29170,29700,4,Quimper-1,CA Quimper Bretagne Occidentale,4216,47.93472,-4.15306,60,26.32
Plomeur,29171,29120,4,Plonéour-Lanvern,CC du Pays Bigouden Sud,3877,47.84028,-4.28417,34,29.79
Plomodiern,29172,29550,2,Crozon,CC Pleyben-Châteaulin-Porzay,2254,48.18083,-4.23,101,46.82
Plonéis,29173,29710,4,Quimper-1,CA Quimper Bretagne Occidentale,2405,48.01667,-4.20722,135,22.04
Plonéour-Lanvern,29174,29720,4,Plonéour-Lanvern,CC du Haut Pays Bigouden,6403,47.90167,-4.28167,70,48.94
Plonévez-du-Faou,29175,29530,2,Carhaix-Plouguer,CC de Haute Cornouaille,2174,48.2525,-3.82389,151,80.92
Plonévez-Porzay,29176,29550,2,Crozon,CC Pleyben-Châteaulin-Porzay,1783,48.12417,-4.21667,80,29.23
Plouarzel,29177,29810,1,Saint-Renan,CC du Pays d'Iroise,3987,48.43306,-4.73,76,42.72
Ploudalmézeau,29178,29830,1,Plabennec,CC du Pays d'Iroise,6440,48.54111,-4.65861,55,23.99
Ploudaniel,29179,29260,1,Lesneven,CC Communauté Lesneven Côte des Légendes,3738,48.53667,-4.31,80,45.71
Ploudiry,29180,29800,1,Pont-de-Buis-lès-Quimerch,CA du Pays de Landerneau-Daoulas,879,48.45333,-4.14028,189,27.82
Plouédern,29181,29800,1,Landerneau,CA du Pays de Landerneau-Daoulas,3062,48.48472,-4.245,100,19.62
Plouégat-Guérand,29182,29620,3,Plouigneau,CA Morlaix Communauté,1058,48.61972,-3.67278,80,17.46
Plouégat-Moysan,29183,29650,3,Plouigneau,CA Morlaix Communauté,720,48.57195,-3.60944,170,15.02
Plouénan,29184,29420,3,Saint-Pol-de-Léon,CC Haut-Léon Communauté,2588,48.62778,-3.98806,60,30.75
Plouescat,29185,29430,3,Saint-Pol-de-Léon,CC Haut-Léon Communauté,3549,48.65667,-4.17167,23,14.98
Plouezoc'h,29186,29252,3,Plouigneau,CA Morlaix Communauté,1640,48.64,-3.82111,80,15.89
Plougar,29187,29440,3,Landivisiau,CC du Pays de Landivisiau,790,48.56167,-4.13917,90,17.6
Plougasnou,29188,29630,3,Plouigneau,CA Morlaix Communauté,3035,48.69528,-3.79194,80,34.44
Plougastel-Daoulas,29189,29470,1,Guipavas,Brest Métropole,13431,48.37389,-4.36778,110,47.29
Plougonvelin,29190,29217,1,Saint-Renan,CC du Pays d'Iroise,4520,48.34,-4.71722,50,19.0
Plougonven,29191,29640,3,Plouigneau,CA Morlaix Communauté,3398,48.52278,-3.70972,172,70.0
Plougoulm,29192,29250,3,Saint-Pol-de-Léon,CC Haut-Léon Communauté,1761,48.66444,-4.04278,51,18.5
Plougourvest,29193,29400,3,Landivisiau,CC du Pays de Landivisiau,1486,48.55278,-4.08444,107,14.2
Plouguerneau,29195,29880,1,Lesneven,CC du Pays des Abers,6719,48.60833,-4.505,52,43.59
Plouguin,29196,29830,1,Plabennec,CC du Pays des Abers,2236,48.52417,-4.5975,57,30.4
Plouhinec,29197,29780,4,Douarnenez,CC Cap Sizun - Pointe du Raz,3923,48.01472,-4.48333,96,27.81
Plouider,29198,29260,1,Lesneven,CC Communauté Lesneven Côte des Légendes,1801,48.60944,-4.29806,60,23.52
Plouigneau,29199,29610,3,Plouigneau,CA Morlaix Communauté,5039,48.56917,-3.7,159,64.11
Ploumoguer,29201,29810,1,Saint-Renan,CC du Pays d'Iroise,2097,48.40139,-4.72111,85,38.91
Plounéour-Brignogan-Plages,29021,29890,1,Lesneven,CC Communauté Lesneven Côte des Légendes,1955,48.66361,-4.32583,10,3.77
Plounéour-Ménez,29202,29410,3,Morlaix,CA Morlaix Communauté,1298,48.43889,-3.89028,230,51.88
Plounéventer,29204,29400,3,Landivisiau,CC du Pays de Landivisiau,2212,48.51278,-4.21111,105,27.43
Plounévez-Lochrist,29206,29430,3,Saint-Pol-de-Léon,CC Haut-Léon Communauté,2285,48.61778,-4.21028,69,39.7
Plounévézel,29205,29270,2,Carhaix-Plouguer,CC Poher Communauté,1153,48.29472,-3.59417,120,24.39
Plourin,29208,29830,1,Saint-Renan,CC du Pays d'Iroise,1263,48.50945,-4.6875,60,25.67
Plourin-lès-Morlaix,29207,29600,3,Plouigneau,CA Morlaix Communauté,4529,48.53722,-3.78889,100,42.42
Plouvien,29209,29860,1,Plabennec,CC du Pays des Abers,3930,48.53028,-4.45111,70,34.31
Plouvorn,29210,29420,3,Landivisiau,CC du Pays de Landivisiau,2932,48.57806,-4.03694,100,35.41
Plouyé,29211,29690,2,Carhaix-Plouguer,CC Monts d'Arrée Communauté,669,48.315,-3.73639,150,37.68
Plouzané,29212,29280,1,Brest-3,Brest Métropole,13437,48.38167,-4.61972,64,33.13
Plouzévédé,29213,29440,3,Landivisiau,CC du Pays de Landivisiau,1856,48.59528,-4.11,73,18.24
Plovan,29214,29720,4,Plonéour-Lanvern,CC du Haut Pays Bigouden,682,47.91611,-4.36056,20,15.8
Plozévet,29215,29710,4,Plonéour-Lanvern,CC du Haut Pays Bigouden,2963,47.98583,-4.42306,72,27.54
Pluguffan,29216,29700,4,Quimper-1,CA Quimper Bretagne Occidentale,4229,47.97944,-4.17694,94,32.25
Pont-Aven,29217,29930,4,Moëlan-sur-Mer,CA Concarneau Cornouaille Agglomération,2796,47.85361,-3.74444,22,28.61
Pont-Croix,29218,29790,4,Douarnenez,CC Cap Sizun - Pointe du Raz,1635,48.04056,-4.48722,20,8.0
Pont-de-Buis-lès-Quimerch,29302,29590,2,Pont-de-Buis-lès-Quimerch,CC Presqu'île de Crozon-Aulne maritime,3571,48.28389,-4.10528,44,40.84
Pont-l'Abbé,29220,29120,4,Pont-l'Abbé,CC du Pays Bigouden Sud,8403,47.8625,-4.21944,10,18.27
Porspoder,29221,29840,1,Saint-Renan,CC du Pays d'Iroise,1761,48.51028,-4.76278,20,11.55
Port-Launay,29222,29150,2,Crozon,CC Pleyben-Châteaulin-Porzay,396,48.21528,-4.07028,30,1.91
Pouldergat,29224,29100,4,Douarnenez,CC Douarnenez Communauté,1213,48.04333,-4.32556,70,24.42
Pouldreuzic,29225,29710,4,Plonéour-Lanvern,CC du Haut Pays Bigouden,2128,47.95417,-4.35861,55,16.83
Poullan-sur-Mer,29226,29100,4,Douarnenez,CC Douarnenez Communauté,1460,48.08,-4.41278,80,30.5
Poullaouen,29227,29246,2,Carhaix-Plouguer,CC Poher Communauté,1466,48.33917,-3.63917,140,72.16
Primelin,29228,29770,4,Douarnenez,CC Cap Sizun - Pointe du Raz,641,48.02389,-4.60944,40,8.7
Quéménéven,29229,29180,4,Crozon,CA Quimper Bretagne Occidentale,1116,48.11278,-4.12111,106,27.95
Querrien,29230,29310,4,Quimperlé,CA Quimperlé Communauté,1654,47.96028,-3.53444,156,54.34
Quimper [3],29232,29000,4,Quimper,CA Quimper Bretagne Occidentale,64530,47.995,-4.10917,30,84.46
Quimperlé,29233,29300,4,Quimperlé,CA Quimperlé Communauté,12444,47.87222,-3.5475,43,30.64
Rédené,29234,29300,4,Quimperlé,CA Quimperlé Communauté,2999,47.86028,-3.45944,60,24.66
le Relecq-Kerhuon,29235,29480,1,Guipavas,Brest Métropole,11837,48.405,-4.38667,41,6.5
Riec-sur-Belon,29236,29340,4,Moëlan-sur-Mer,CA Quimperlé Communauté,4374,47.84333,-3.69278,60,54.48
la Roche-Maurice,29237,29800,1,Landerneau,CA du Pays de Landerneau-Daoulas,1865,48.47194,-4.20111,60,11.96
Roscanvel,29238,29570,2,Crozon,CC Presqu'île de Crozon-Aulne maritime,825,48.315,-4.54583,20,9.38
Roscoff,29239,29680,3,Saint-Pol-de-Léon,CC Haut-Léon Communauté,3318,48.72445,-3.98417,10,6.56
Rosnoën,29240,29590,2,Pont-de-Buis-lès-Quimerch,CC Presqu'île de Crozon-Aulne maritime,993,48.26472,-4.19417,140,33.79
Rosporden,29241,29140,4,Concarneau,CA Concarneau Cornouaille Agglomération,7580,47.95806,-3.83167,120,57.5
Saint-Coulitz,29243,29150,2,Crozon,CC Pleyben-Châteaulin-Porzay,471,48.18917,-4.06,60,11.07
Saint-Derrien,29244,29440,3,Landivisiau,CC du Pays de Landivisiau,846,48.54667,-4.17972,80,12.32
Saint-Divy,29245,29800,1,Landerneau,CA du Pays de Landerneau-Daoulas,1602,48.45194,-4.33389,110,8.54
Saint-Eloy,29246,29460,1,Pont-de-Buis-lès-Quimerch,CA du Pays de Landerneau-Daoulas,221,48.35944,-4.12222,155,12.55
Saint-Évarzec,29247,29170,4,Fouesnant,CC du Pays Fouesnantais,3491,47.93583,-4.01917,60,24.72
Saint-Frégant,29248,29260,1,Lesneven,CC Communauté Lesneven Côte des Légendes,870,48.60306,-4.36583,40,8.45
Saint-Goazec,29249,29520,2,Briec,CC de Haute Cornouaille,730,48.16278,-3.78306,116,33.42
Saint-Hernin,29250,29270,2,Carhaix-Plouguer,CC Poher Communauté,735,48.2175,-3.63361,120,29.38
Saint-Jean-du-Doigt,29251,29630,3,Plouigneau,CA Morlaix Communauté,683,48.69361,-3.77167,22,20.02
Saint-Jean-Trolimon,29252,29120,4,Plonéour-Lanvern,CC du Pays Bigouden Sud,973,47.86472,-4.28,22,14.46
Saint-Martin-des-Champs,29254,29600,3,Morlaix,CA Morlaix Communauté,4792,48.5775,-3.84139,80,15.75
Saint-Méen,29255,29260,1,Lesneven,CC Communauté Lesneven Côte des Légendes,941,48.55861,-4.26139,60,12.02
Saint-Nic,29256,29550,2,Crozon,CC Pleyben-Châteaulin-Porzay,756,48.20139,-4.2825,60,18.01
Saint-Pabu,29257,29830,1,Plabennec,CC du Pays des Abers,2078,48.56306,-4.59528,20,9.85
Saint-Pol-de-Léon,29259,29250,3,Saint-Pol-de-Léon,CC Haut-Léon Communauté,6841,48.68472,-3.98778,40,23.74
Saint-Renan,29260,29290,1,Saint-Renan,CC du Pays d'Iroise,8454,48.43083,-4.62306,60,13.05
Saint-Rivoal,29261,29190,2,Carhaix-Plouguer,CC Monts d'Arrée Communauté,220,48.34833,-3.9975,177,19.09
Saint-Sauveur,29262,29400,3,Landivisiau,CC du Pays de Landivisiau,827,48.44667,-4.00583,180,13.31
Saint-Ségal,29263,29590,2,Pont-de-Buis-lès-Quimerch,CC Pleyben-Châteaulin-Porzay,1183,48.23889,-4.06222,90,16.28
Saint-Servais,29264,29400,3,Landivisiau,CC du Pays de Landivisiau,789,48.51111,-4.15361,89,10.44
Saint-Thégonnec-Loc-Éguiner,29266,29410,3,Morlaix,CA Morlaix Communauté,3118,48.52139,-3.94417,83,41.85
Saint-Thois,29267,29520,2,Briec,CC de Haute Cornouaille,709,48.16472,-3.88333,80,17.88
Saint-Thonan,29268,29800,1,Landerneau,CA du Pays de Landerneau-Daoulas,1943,48.48,-4.33417,80,11.47
Saint-Thurien,29269,29380,4,Quimperlé,CA Quimperlé Communauté,1005,47.95861,-3.62306,129,21.4
Saint-Urbain,29270,29800,1,Pont-de-Buis-lès-Quimerch,CA du Pays de Landerneau-Daoulas,1669,48.39778,-4.22833,110,15.23
Saint-Vougay,29271,29440,3,Landivisiau,CC du Pays de Landivisiau,879,48.59333,-4.1375,86,14.81
Saint-Yvi,29272,29140,4,Concarneau,CA Concarneau Cornouaille Agglomération,3418,47.96695,-3.93139,100,27.52
Sainte-Sève,29265,29600,3,Morlaix,CA Morlaix Communauté,1060,48.55889,-3.87444,90,9.93
Santec,29273,29250,3,Saint-Pol-de-Léon,CC Haut-Léon Communauté,2435,48.70278,-4.02417,10,8.21
Scaër,29274,29390,4,Moëlan-sur-Mer,CA Quimperlé Communauté,5197,48.0275,-3.70222,182,117.99
Scrignac,29275,29640,2,Carhaix-Plouguer,CC Monts d'Arrée Communauté,781,48.43278,-3.6775,230,70.63
Sibiril,29276,29250,3,Saint-Pol-de-Léon,CC Haut-Léon Communauté,1154,48.66389,-4.06194,52,11.54
Sizun,29277,29450,3,Landivisiau,CC du Pays de Landivisiau,2334,48.40445,-4.07722,105,59.07
Spézet,29278,29540,2,Carhaix-Plouguer,CC de Haute Cornouaille,1743,48.1925,-3.71444,110,61.45
Taulé,29279,29670,3,Morlaix,CA Morlaix Communauté,2883,48.60472,-3.89944,80,29.58
Telgruc-sur-Mer,29280,29560,2,Crozon,CC Presqu'île de Crozon-Aulne maritime,2145,48.23111,-4.35667,90,28.44
Tourch,29281,29140,4,Concarneau,CA Concarneau Cornouaille Agglomération,1004,48.02306,-3.82556,170,19.86
Trébabu,29282,29217,1,Saint-Renan,CC du Pays d'Iroise,365,48.3725,-4.73667,38,4.41
Treffiagat,29284,29730,4,Pont-l'Abbé,CC du Pays Bigouden Sud,2438,47.81,-4.26389,17,8.21
Tréflaouénan,29285,29440,3,Saint-Pol-de-Léon,CC Haut-Léon Communauté,523,48.6275,-4.09583,50,8.19
Tréflévénez,29286,29800,1,Pont-de-Buis-lès-Quimerch,CA du Pays de Landerneau-Daoulas,247,48.41472,-4.16806,150,9.76
Tréflez,29287,29430,3,Saint-Pol-de-Léon,CC Haut-Léon Communauté,984,48.62389,-4.25861,40,16.05
Trégarantec,29288,29260,1,Lesneven,CC Communauté Lesneven Côte des Légendes,628,48.55222,-4.29222,80,5.09
Trégarvan,29289,29560,2,Crozon,CC Pleyben-Châteaulin-Porzay,127,48.2525,-4.22306,27,9.63
Tréglonou,29290,29870,1,Plabennec,CC du Pays des Abers,689,48.55083,-4.53694,40,5.86
Trégourez,29291,29970,2,Briec,CC de Haute Cornouaille,952,48.105,-3.86139,130,17.49
Tréguennec,29292,29720,4,Plonéour-Lanvern,CC du Pays Bigouden Sud,312,47.89,-4.33111,39,9.0
Trégunc,29293,29910,4,Moëlan-sur-Mer,CA Concarneau Cornouaille Agglomération,7094,47.85528,-3.84972,30,50.77
le Tréhou,29294,29450,1,Pont-de-Buis-lès-Quimerch,CA du Pays de Landerneau-Daoulas,636,48.39361,-4.13056,87,23.23
Trémaouézan,29295,29800,1,Landerneau,CA du Pays de Landerneau-Daoulas,492,48.50361,-4.25139,90,8.49
Tréméoc,29296,29120,4,Plonéour-Lanvern,CC du Pays Bigouden Sud,1506,47.90556,-4.21139,50,11.63
Tréméven,29297,29300,4,Quimperlé,CA Quimperlé Communauté,2378,47.89833,-3.53111,90,15.45
Tréogat,29298,29720,4,Plonéour-Lanvern,CC du Haut Pays Bigouden,579,47.91945,-4.32028,30,9.06
Tréouergat,29299,29290,1,Saint-Renan,CC du Pays d'Iroise,325,48.49611,-4.60028,35,6.17
le Trévoux,29300,29380,4,Moëlan-sur-Mer,CA Quimperlé Communauté,1611,47.89444,-3.63889,80,20.87
Trézilidé,29301,29440,3,Landivisiau,CC du Pays de Landivisiau,403,48.60806,-4.08611,80,4.6
Acigné,35001,35690,3,Liffré,Rennes Métropole,6911,48.1325,-1.53694,40,30.16
Amanlis,35002,35150,1,Janzé,Roche aux Fées Communauté,1765,48.00555,-1.47583,40,25.61
Andouillé-Neuville,35003,35250,3,Val-Couesnon,CC Val d'Ille-Aubigné,1006,48.29306,-1.59139,80,12.7
Arbrissel,35005,35130,1,La Guerche-de-Bretagne,Roche aux Fées Communauté,270,47.92833,-1.30306,70,4.6
Argentré-du-Plessis,35006,35370,1,La Guerche-de-Bretagne,CA Vitré Communauté,4591,48.05667,-1.14944,80,41.2
Aubigné,35007,35250,3,Val-Couesnon,CC Val d'Ille-Aubigné,465,48.29361,-1.63361,87,2.22
Availles-sur-Seiche,35008,35130,1,La Guerche-de-Bretagne,CA Vitré Communauté,647,47.96111,-1.19611,60,11.07
Baguer-Morvan,35009,35120,4,Dol-de-Bretagne,CC du Pays de Dol et de la Baie du Mont Saint-Michel,1697,48.52333,-1.77528,31,24.4
Baguer-Pican,35010,35120,4,Dol-de-Bretagne,CC du Pays de Dol et de la Baie du Mont Saint-Michel,1764,48.55417,-1.69778,35,16.13
Bain-de-Bretagne,35012,35470,2,Bain-de-Bretagne,CC Bretagne Porte de Loire Communauté,7704,47.84139,-1.68167,100,66.04
Bains-sur-Oust,35013,35600,2,Redon,CA Redon Agglomération,3521,47.70555,-2.06972,60,45.16
Bais,35014,35680,1,La Guerche-de-Bretagne,CA Vitré Communauté,2511,48.00917,-1.28889,74,35.21
Balazé,35015,35500,1,Vitré,CA Vitré Communauté,2181,48.16861,-1.19,90,36.47
Baulon,35016,35580,2,Guichen,CC Vallons de Haute-Bretagne Communauté,2208,47.98583,-1.9325,100,25.22
la Baussaine,35017,35190,4,Combourg,CC Bretagne Romantique,675,48.31361,-1.89667,75,9.78
la Bazouge-du-Désert,35018,35420,1,Fougères-2,CA Fougères Agglomération,1080,48.44528,-1.105,175,25.16
Bazouges-la-Pérouse,35019,35560,1,Val-Couesnon,CC Couesnon Marches de Bretagne,1865,48.42722,-1.57389,90,57.92
Beaucé,35021,35133,1,Fougères-2,CA Fougères Agglomération,1289,48.33805,-1.155,90,8.43
Bécherel,35022,35190,3,Montauban-de-Bretagne,Rennes Métropole,685,48.29528,-1.94417,160,0.55
Bédée,35023,35137,3,Montfort-sur-Meu,CC Montfort Communauté,4571,48.1775,-1.94472,80,39.45
Betton,35024,35830,3,Betton,Rennes Métropole,12775,48.18195,-1.64417,50,26.78
Billé,35025,35133,1,Fougères-1,CA Fougères Agglomération,1038,48.28806,-1.24611,108,17.03
Bléruais,35026,35750,3,Montauban-de-Bretagne,CC de Saint-Méen Montauban,98,48.11222,-2.12278,88,3.36
Boisgervilly,35027,35360,3,Montauban-de-Bretagne,CC de Saint-Méen Montauban,1757,48.1675,-2.06306,90,20.08
Boistrudan,35028,35150,1,Châteaugiron,Roche aux Fées Communauté,726,47.97194,-1.40028,68,12.98
Bonnemain,35029,35270,4,Combourg,CC Bretagne Romantique,1533,48.4675,-1.76639,71,24.11
la Bosse-de-Bretagne,35030,35320,2,Bain-de-Bretagne,CC Bretagne Porte de Loire Communauté,691,47.87028,-1.59861,50,10.59
la Bouëxière,35031,35340,3,Liffré,CC Liffré-Cormier Communauté,4602,48.18306,-1.43861,105,49.81
Bourg-des-Comptes,35033,35890,2,Guichen,CC Vallons de Haute-Bretagne Communauté,3388,47.92861,-1.73806,65,23.44
Bourgbarré,35032,35230,3,Janzé,Rennes Métropole,4692,47.99667,-1.61556,50,14.79
la Boussac,35034,35120,4,Dol-de-Bretagne,CC du Pays de Dol et de la Baie du Mont Saint-Michel,1250,48.51306,-1.66056,37,21.92
Bovel,35035,35330,2,Guichen,CC Vallons de Haute-Bretagne Communauté,600,47.95,-1.97722,80,14.65
Bréal-sous-Montfort,35037,35310,3,Le Rheu,CC Brocéliande Communauté,6430,48.04806,-1.86667,50,33.94
Bréal-sous-Vitré,35038,35370,1,Vitré,CA Vitré Communauté,614,48.10389,-1.06056,120,5.76
Brécé,35039,35530,3,Liffré,Rennes Métropole,2185,48.10833,-1.48,50,7.26
Breteil,35040,35160,3,Montfort-sur-Meu,CC Montfort Communauté,3678,48.14528,-1.89778,56,14.92
Brie,35041,35150,1,Janzé,Roche aux Fées Communauté,1014,47.95056,-1.53778,70,13.72
Brielles,35042,35370,1,La Guerche-de-Bretagne,CA Vitré Communauté,679,48.00945,-1.08861,85,11.64
Broualan,35044,35120,4,Dol-de-Bretagne,CC du Pays de Dol et de la Baie du Mont Saint-Michel,411,48.47528,-1.64889,113,12.9
Bruc-sur-Aff,35045,35550,2,Redon,CA Redon Agglomération,856,47.81445,-2.01861,50,21.16
les Brulais,35046,35330,2,Guichen,CC Vallons de Haute-Bretagne Communauté,541,47.88917,-2.04111,89,12.09
Bruz,35047,35170,3,Bruz,Rennes Métropole,19667,48.02361,-1.74611,41,29.81
Cancale,35049,35260,4,Saint-Malo-1,CA du Pays de Saint Malo Agglomération,5554,48.67639,-1.84889,29,12.68
Cardroc,35050,35190,4,Combourg,CC Bretagne Romantique,598,48.285,-1.88806,130,7.35
Cesson-Sévigné,35051,35510,3,Betton,Rennes Métropole,18076,48.11778,-1.605,40,32.18
Champeaux,35052,35500,1,Vitré,CA Vitré Communauté,504,48.1475,-1.31056,90,10.37
Chanteloup,35054,35150,2,Bain-de-Bretagne,CC Bretagne Porte de Loire Communauté,1881,47.96695,-1.61333,82,17.99
Chantepie,35055,35135,3,Rennes-3,Rennes Métropole,10378,48.08667,-1.61611,50,12.0
la Chapelle-aux-Filtzméens,35056,35190,4,Combourg,CC Bretagne Romantique,825,48.38445,-1.82389,35,6.43
la Chapelle-Bouëxic,35057,35330,2,Guichen,CC Vallons de Haute-Bretagne Communauté,1527,47.92861,-1.94111,70,20.81
la Chapelle-Chaussée,35058,35630,3,Montauban-de-Bretagne,Rennes Métropole,1299,48.27111,-1.85361,120,14.83
la Chapelle-de-Brain,35064,35660,2,Redon,CA Redon Agglomération,1107,47.69861,-1.93194,58,17.84
la Chapelle-des-Fougeretz,35059,35520,3,Betton,Rennes Métropole,4603,48.17556,-1.73139,83,8.67
La Chapelle-du-Lou-du-Lac,35060,35360,3,Montauban-de-Bretagne,CC de Saint-Méen Montauban,1037,48.21278,-1.99139,90,7.28
la Chapelle-Erbrée,35061,35500,1,Vitré,CA Vitré Communauté,723,48.14139,-1.10111,70,11.87
La Chapelle-Fleurigné,35062,35133,1,Fougères-2,CA Fougères Agglomération,2430,48.34778,-1.10056,120,27.07
la Chapelle-Saint-Aubert,35063,35140,1,Fougères-1,CA Fougères Agglomération,468,48.31389,-1.30833,100,10.01
la Chapelle-Thouarault,35065,35590,3,Le Rheu,Rennes Métropole,2266,48.12417,-1.86611,50,7.75
Chartres-de-Bretagne,35066,35131,3,Bruz,Rennes Métropole,8678,48.04194,-1.70278,35,10.05
Chasné-sur-Illet,35067,35250,3,Liffré,CC Liffré-Cormier Communauté,1702,48.24167,-1.56111,52,9.68
Châteaubourg,35068,35220,1,Châteaugiron,CA Vitré Communauté,7523,48.10833,-1.40389,51,28.92
Châteaugiron,35069,35410,3,Châteaugiron,CC Pays de Châteaugiron Communauté,10688,48.04639,-1.50194,50,8.23
Châteauneuf-d'Ille-et-Vilaine,35070,35430,4,Dol-de-Bretagne,CA du Pays de Saint Malo Agglomération,1679,48.56417,-1.92556,12,1.43
le Châtellier,35071,35133,1,Val-Couesnon,CC Couesnon Marches de Bretagne,427,48.41694,-1.25222,181,13.5
Châtillon-en-Vendelais,35072,35210,1,Vitré,CA Vitré Communauté,1738,48.225,-1.17722,139,32.21
Chauvigné,35075,35490,1,Val-Couesnon,CC Couesnon Marches de Bretagne,807,48.37639,-1.45944,82,18.02
Chavagne,35076,35310,3,Le Rheu,Rennes Métropole,4562,48.05222,-1.78833,30,12.48
Chelun,35077,35640,1,La Guerche-de-Bretagne,Roche aux Fées Communauté,354,47.85444,-1.22278,100,11.5
Cherrueix,35078,35120,4,Dol-de-Bretagne,CC du Pays de Dol et de la Baie du Mont Saint-Michel,1106,48.60639,-1.71028,6,12.96
Chevaigné,35079,35250,3,Betton,Rennes Métropole,2396,48.21139,-1.6275,60,10.47
Cintré,35080,35310,3,Le Rheu,Rennes Métropole,2614,48.10528,-1.87056,40,8.46
Clayes,35081,35590,3,Melesse,Rennes Métropole,941,48.175,-1.85222,88,4.32
Coësmes,35082,35134,1,La Guerche-de-Bretagne,Roche aux Fées Communauté,1435,47.88417,-1.44028,70,23.8
Comblessac,35084,35330,2,Guichen,CC Vallons de Haute-Bretagne Communauté,677,47.875,-2.0825,52,17.38
Combourg,35085,35270,4,Combourg,CC Bretagne Romantique,6324,48.40944,-1.75028,50,64.19
Combourtillé,35086,35210,1,Fougères-1,CA Fougères Agglomération,608,48.27083,-1.24389,100,9.21
Cornillé,35087,35500,1,Vitré,CA Vitré Communauté,967,48.07972,-1.305,92,12.59
Corps-Nuds,35088,35150,3,Janzé,Rennes Métropole,3555,47.97806,-1.58639,76,22.95
la Couyère,35089,35320,2,Bain-de-Bretagne,CC Bretagne Porte de Loire Communauté,447,47.88722,-1.50556,85,11.91
Crevin,35090,35320,2,Bain-de-Bretagne,CC Bretagne Porte de Loire Communauté,2790,47.9375,-1.66306,100,8.47
le Crouais,35091,35290,3,Montauban-de-Bretagne,CC de Saint-Méen Montauban,591,48.20722,-2.13722,100,6.33
Cuguen,35092,35270,4,Combourg,CC Bretagne Romantique,830,48.44944,-1.6625,107,23.85
Dinard,35093,35800,4,Saint-Malo-2,CC Côte d'Emeraude,10407,48.63361,-2.06139,28,7.56
Dingé,35094,35440,4,Combourg,CC Bretagne Romantique,1690,48.35806,-1.71389,90,53.62
Dol-de-Bretagne,35095,35120,4,Dol-de-Bretagne,CC du Pays de Dol et de la Baie du Mont Saint-Michel,5786,48.54833,-1.74861,15,15.52
Domagné,35096,35113,1,Châteaugiron,CA Vitré Communauté,2439,48.06944,-1.39139,80,29.32
Domalain,35097,35680,1,La Guerche-de-Bretagne,CA Vitré Communauté,2050,47.99528,-1.24139,100,33.66
la Dominelais,35098,35390,2,Bain-de-Bretagne,CC Bretagne Porte de Loire Communauté,1414,47.76333,-1.68778,57,32.56
Domloup,35099,35410,3,Châteaugiron,CC Pays de Châteaugiron Communauté,3839,48.06167,-1.52111,60,18.76
Dourdain,35101,35450,3,Liffré,CC Liffré-Cormier Communauté,1225,48.19194,-1.3675,74,13.95
Drouges,35102,35130,1,La Guerche-de-Bretagne,CA Vitré Communauté,503,47.90306,-1.26417,76,11.76
Eancé,35103,35640,1,La Guerche-de-Bretagne,Roche aux Fées Communauté,430,47.8225,-1.2425,74,16.72
Epiniac,35104,35120,4,Dol-de-Bretagne,CC du Pays de Dol et de la Baie du Mont Saint-Michel,1423,48.51083,-1.69611,45,24.51
Erbrée,35105,35500,1,Vitré,CA Vitré Communauté,1713,48.09889,-1.12278,121,35.92
Ercé-en-Lamée,35106,35620,2,Bain-de-Bretagne,CC Bretagne Porte de Loire Communauté,1568,47.83167,-1.55778,70,39.36
Ercé-près-Liffré,35107,35340,3,Liffré,CC Liffré-Cormier Communauté,2010,48.25555,-1.51472,60,15.89
Essé,35108,35150,1,La Guerche-de-Bretagne,Roche aux Fées Communauté,1028,47.95806,-1.42333,50,23.46
Étrelles,35109,35370,1,La Guerche-de-Bretagne,CA Vitré Communauté,2670,48.05972,-1.19139,90,27.95
Feins,35110,35440,3,Val-Couesnon,CC Val d'Ille-Aubigné,1066,48.32806,-1.64056,100,20.31
le Ferré,35111,35420,1,Fougères-2,CA Fougères Agglomération,727,48.49333,-1.29444,136,17.45
Forges-la-Forêt,35114,35640,1,La Guerche-de-Bretagne,Roche aux Fées Communauté,265,47.86083,-1.27611,93,6.08
Fougères,35115,35133,1,Fougères,CA Fougères Agglomération,20602,48.35278,-1.20139,90,10.44
la Fresnais,35116,35111,4,Dol-de-Bretagne,CA du Pays de Saint Malo Agglomération,2508,48.59722,-1.84056,7,14.38
Gaël,35117,35290,3,Montauban-de-Bretagne,CC de Saint-Méen Montauban,1617,48.1325,-2.21917,80,52.94
Gahard,35118,35490,3,Val-Couesnon,CC Val d'Ille-Aubigné,1523,48.29806,-1.51861,80,25.07
Gennes-sur-Seiche,35119,35370,1,La Guerche-de-Bretagne,CA Vitré Communauté,943,47.98861,-1.12333,70,18.59
Gévezé,35120,35850,3,Melesse,Rennes Métropole,5987,48.21972,-1.78917,70,27.74
Gosné,35121,35140,3,Fougères-1,CC Liffré-Cormier Communauté,2098,48.24528,-1.46222,103,18.38
la Gouesnière,35122,35350,4,Saint-Malo-1,CA du Pays de Saint Malo Agglomération,2000,48.60722,-1.89389,19,8.85
Goven,35123,35580,2,Guichen,CC Vallons de Haute-Bretagne Communauté,4326,48.00639,-1.84556,100,40.16
Grand-Fougeray,35124,35390,2,Bain-de-Bretagne,CC Bretagne Porte de Loire Communauté,2523,47.72445,-1.73194,62,55.32
la Guerche-de-Bretagne,35125,35130,1,La Guerche-de-Bretagne,CA Vitré Communauté,4450,47.94333,-1.23083,80,11.69
Guichen,35126,35580,2,Guichen,CC Vallons de Haute-Bretagne Communauté,9203,47.96861,-1.79639,75,43.12
Guignen,35127,35580,2,Guichen,CC Vallons de Haute-Bretagne Communauté,4149,47.92028,-1.86028,73,53.24
Guipel,35128,35440,3,Melesse,CC Val d'Ille-Aubigné,1735,48.29722,-1.71972,80,25.48
Guipry-Messac,35176,35480,2,Redon,CC Vallons de Haute-Bretagne Communauté,7243,47.82528,-1.84167,40,50.72
Hédé-Bazouges,35130,35630,4,Melesse,CC Bretagne Romantique,2273,48.29361,-1.80056,94,22.77
l'Hermitage,35131,35590,3,Le Rheu,Rennes Métropole,4683,48.12583,-1.81611,51,6.84
Hirel,35132,35120,4,Dol-de-Bretagne,CA du Pays de Saint Malo Agglomération,1384,48.60583,-1.80028,8,9.93
Iffendic,35133,35750,3,Montfort-sur-Meu,CC Montfort Communauté,4603,48.13,-2.03278,50,74.89
les Iffs,35134,35630,4,Combourg,CC Bretagne Romantique,274,48.28806,-1.86528,120,4.54
Irodouër,35135,35850,3,Montauban-de-Bretagne,CC de Saint-Méen Montauban,2308,48.24917,-1.94944,100,23.59
Janzé,35136,35150,1,Janzé,Roche aux Fées Communauté,8618,47.96111,-1.49556,91,41.62
Javené,35137,35133,1,Fougères-1,CA Fougères Agglomération,2185,48.32028,-1.21528,90,18.52
Laignelet,35138,35133,1,Fougères-2,CA Fougères Agglomération,1217,48.37139,-1.14833,170,15.07
Laillé,35139,35890,3,Bruz,Rennes Métropole,5154,47.97833,-1.71917,100,32.12
Lalleu,35140,35320,2,Bain-de-Bretagne,CC Bretagne Porte de Loire Communauté,581,47.85556,-1.50972,59,15.47
Landavran,35141,35450,1,Vitré,CA Vitré Communauté,682,48.15805,-1.28861,110,5.2
Landéan,35142,35133,1,Fougères-2,CA Fougères Agglomération,1225,48.41528,-1.15139,145,28.34
Landujan,35143,35360,3,Montauban-de-Bretagne,CC de Saint-Méen Montauban,930,48.25,-1.99528,100,14.46
Langan,35144,35850,3,Montauban-de-Bretagne,Rennes Métropole,1090,48.245,-1.85167,100,7.78
Langon,35145,35660,2,Redon,CA Redon Agglomération,1393,47.72,-1.84833,20,36.58
Langouet,35146,35630,3,Melesse,CC Val d'Ille-Aubigné,610,48.24722,-1.82139,80,7.13
Lanrigan,35148,35270,4,Combourg,CC Bretagne Romantique,144,48.39528,-1.69833,71,4.04
Lassy,35149,35580,2,Guichen,CC Vallons de Haute-Bretagne Communauté,1817,47.97972,-1.87056,90,9.88
Lécousse,35150,35133,1,Fougères-1,CA Fougères Agglomération,3423,48.36722,-1.21778,160,11.1
Les Portes du Coglais,35191,35460,1,Val-Couesnon,CC Couesnon Marches de Bretagne,2235,48.44278,-1.30889,152,15.56
Lieuron,35151,35550,2,Redon,CA Redon Agglomération,802,47.85222,-1.94306,40,16.97
Liffré,35152,35340,3,Liffré,CC Liffré-Cormier Communauté,8987,48.21417,-1.50667,97,66.97
Lillemer,35153,35111,4,Dol-de-Bretagne,CA du Pays de Saint Malo Agglomération,383,48.565,-1.86333,13,3.81
Livré-sur-Changeon,35154,35450,3,Fougères-1,CC Liffré-Cormier Communauté,1737,48.2175,-1.34083,115,26.82
Lohéac,35155,35550,2,Redon,CC Vallons de Haute-Bretagne Communauté,700,47.86583,-1.88167,46,5.23
Longaulnay,35156,35190,4,Combourg,CC Bretagne Romantique,598,48.30972,-1.93833,100,7.64
le Loroux,35157,35133,1,Fougères-2,CA Fougères Agglomération,618,48.39556,-1.06417,168,11.46
Lourmais,35159,35270,4,Combourg,CC Bretagne Romantique,335,48.44972,-1.7275,95,7.26
Loutehel,35160,35330,2,Guichen,CC Vallons de Haute-Bretagne Communauté,235,47.93639,-2.07944,60,7.25
Louvigné-de-Bais,35161,35680,1,Châteaugiron,CA Vitré Communauté,1874,48.04639,-1.33028,82,15.7
Louvigné-du-Désert,35162,35420,1,Fougères-2,CA Fougères Agglomération,3352,48.48139,-1.12111,174,42.28
Luitré-Dompierre,35163,35133,1,Fougères-2,CA Fougères Agglomération,1844,48.28472,-1.11861,140,29.36
Maen-Roch,35257,35460,1,Val-Couesnon,CC Couesnon Marches de Bretagne,5093,48.41139,-1.36556,110,16.6
Marcillé-Raoul,35164,35560,1,Val-Couesnon,CC Couesnon Marches de Bretagne,737,48.38722,-1.60556,50,22.26
Marcillé-Robert,35165,35240,1,La Guerche-de-Bretagne,Roche aux Fées Communauté,994,47.95167,-1.35528,59,20.49
Marpiré,35166,35220,1,Vitré,CA Vitré Communauté,1013,48.14167,-1.33944,108,11.3
Martigné-Ferchaud,35167,35640,1,La Guerche-de-Bretagne,Roche aux Fées Communauté,2632,47.83167,-1.31806,80,74.89
Maxent,35169,35380,3,Montfort-sur-Meu,CC Brocéliande Communauté,1457,47.98389,-2.03167,120,40.21
Mecé,35170,35450,1,Vitré,CA Vitré Communauté,613,48.23583,-1.30083,119,16.24
Médréac,35171,35360,3,Montauban-de-Bretagne,CC de Saint-Méen Montauban,1845,48.26778,-2.06333,90,35.29
Meillac,35172,35270,4,Combourg,CC Bretagne Romantique,1975,48.41139,-1.81139,45,32.61
Melesse,35173,35520,3,Melesse,CC Val d'Ille-Aubigné,7400,48.21695,-1.69639,81,32.74
Mellé,35174,35420,1,Fougères-2,CA Fougères Agglomération,648,48.48861,-1.18833,192,15.82
Mernel,35175,35330,2,Guichen,CC Vallons de Haute-Bretagne Communauté,1017,47.89778,-1.96806,60,16.76
Mesnil-Roc'h,35308,35720,4,Combourg,CC Bretagne Romantique,4457,48.4475,-1.91333,71,29.87
la Mézière,35177,35520,3,Melesse,CC Val d'Ille-Aubigné,4935,48.21833,-1.75417,100,16.49
Mézières-sur-Couesnon,35178,35140,3,Fougères-1,CC Liffré-Cormier Communauté,1735,48.29583,-1.43083,90,25.32
Miniac-Morvan,35179,35540,4,Dol-de-Bretagne,CA du Pays de Saint Malo Agglomération,4379,48.51472,-1.89833,37,31.62
Miniac-sous-Bécherel,35180,35190,3,Montauban-de-Bretagne,Rennes Métropole,788,48.28528,-1.93083,159,13.6
le Minihic-sur-Rance,35181,35870,4,Saint-Malo-2,CC Côte d'Emeraude,1499,48.57861,-2.01194,40,3.86
Mondevert,35183,35370,1,Vitré,CA Vitré Communauté,806,48.08417,-1.0975,120,5.11
Mont-Dol,35186,35120,4,Dol-de-Bretagne,CC du Pays de Dol et de la Baie du Mont Saint-Michel,1076,48.56944,-1.7675,61,26.45
Montauban-de-Bretagne,35184,35360,3,Montauban-de-Bretagne,CC de Saint-Méen Montauban,6574,48.20028,-2.04667,70,43.79
Montautour,35185,35210,1,Vitré,CA Vitré Communauté,268,48.205,-1.14639,180,6.91
Monterfil,35187,35160,3,Montfort-sur-Meu,CC Brocéliande Communauté,1352,48.06472,-1.97944,90,17.31
Montfort-sur-Meu,35188,35160,3,Montfort-sur-Meu,CC Montfort Communauté,6767,48.13694,-1.95333,38,14.03
Montgermont,35189,35760,3,Betton,Rennes Métropole,3777,48.15472,-1.71583,55,4.61
Monthault,35190,35420,1,Fougères-2,CA Fougères Agglomération,250,48.51111,-1.18,160,8.33
Montreuil-des-Landes,35192,35210,1,Vitré,CA Vitré Communauté,235,48.2475,-1.22444,110,9.39
Montreuil-le-Gast,35193,35520,3,Melesse,CC Val d'Ille-Aubigné,2048,48.24528,-1.72278,100,9.17
Montreuil-sous-Pérouse,35194,35500,1,Vitré,CA Vitré Communauté,1041,48.14944,-1.23444,70,16.17
Montreuil-sur-Ille,35195,35440,3,Val-Couesnon,CC Val d'Ille-Aubigné,2419,48.3075,-1.66917,60,15.3
Mordelles,35196,35310,3,Le Rheu,Rennes Métropole,7831,48.0725,-1.84806,40,30.37
Mouazé,35197,35250,3,Val-Couesnon,CC Val d'Ille-Aubigné,1728,48.23083,-1.60806,50,8.34
Moulins,35198,35680,1,La Guerche-de-Bretagne,CA Vitré Communauté,716,48.00167,-1.37083,56,15.43
Moussé,35199,35130,1,La Guerche-de-Bretagne,CA Vitré Communauté,310,47.925,-1.26972,60,3.45
Moutiers,35200,35130,1,La Guerche-de-Bretagne,CA Vitré Communauté,905,47.9675,-1.21056,70,17.85
Muel,35201,35290,3,Montauban-de-Bretagne,CC de Saint-Méen Montauban,912,48.12722,-2.15444,53,29.31
la Noë-Blanche,35202,35470,2,Bain-de-Bretagne,CC Bretagne Porte de Loire Communauté,1007,47.80361,-1.74,55,23.14
la Nouaye,35203,35137,3,Montfort-sur-Meu,CC Montfort Communauté,357,48.16167,-1.97889,50,2.75
Nouvoitou,35204,35410,3,Janzé,Rennes Métropole,3732,48.04083,-1.54611,60,19.43
Noyal-Châtillon-sur-Seiche,35206,35230,3,Bruz,Rennes Métropole,7995,48.04278,-1.66194,25,26.33
Noyal-sous-Bazouges,35205,35560,1,Val-Couesnon,CC Couesnon Marches de Bretagne,382,48.41389,-1.62556,70,15.01
Noyal-sur-Vilaine,35207,35530,3,Châteaugiron,CC Pays de Châteaugiron Communauté,6250,48.11417,-1.52194,73,31.32
Orgères,35208,35230,3,Janzé,Rennes Métropole,5602,47.99694,-1.66889,54,16.78
Pacé,35210,35740,3,Rennes-6,Rennes Métropole,11815,48.1475,-1.77167,60,35.16
Paimpont,35211,35380,3,Montfort-sur-Meu,CC Brocéliande Communauté,1778,48.01917,-2.16861,150,110.36
Pancé,35212,35320,2,Bain-de-Bretagne,CC Bretagne Porte de Loire Communauté,1171,47.88278,-1.66167,97,19.73
Parcé,35214,35210,1,Fougères-1,CA Fougères Agglomération,652,48.27389,-1.19944,110,17.22
Parigné,35215,35133,1,Fougères-2,CA Fougères Agglomération,1301,48.42917,-1.18944,150,20.19
Parthenay-de-Bretagne,35216,35850,3,Melesse,Rennes Métropole,1802,48.19139,-1.83,80,4.89
le Pertre,35217,35370,1,La Guerche-de-Bretagne,CA Vitré Communauté,1372,48.03417,-1.03583,150,43.59
le Petit-Fougeray,35218,35320,2,Bain-de-Bretagne,CC Bretagne Porte de Loire Communauté,886,47.92833,-1.60694,100,9.1
Pipriac,35219,35550,2,Redon,CA Redon Agglomération,3871,47.80806,-1.94667,60,49.4
Piré-Chancé,35220,35150,3,Châteaugiron,CC Pays de Châteaugiron Communauté,3177,48.0075,-1.42917,52,36.58
Pléchâtel,35221,35470,2,Bain-de-Bretagne,CC Bretagne Porte de Loire Communauté,2796,47.89556,-1.74972,67,36.21
Pleine-Fougères,35222,35610,4,Dol-de-Bretagne,CC du Pays de Dol et de la Baie du Mont Saint-Michel,1978,48.53361,-1.56278,40,32.6
Plélan-le-Grand,35223,35380,3,Montfort-sur-Meu,CC Brocéliande Communauté,4063,48.00222,-2.09806,130,50.28
Plerguer,35224,35540,4,Dol-de-Bretagne,CA du Pays de Saint Malo Agglomération,2871,48.52917,-1.84694,25,20.38
Plesder,35225,35720,4,Combourg,CC Bretagne Romantique,778,48.41222,-1.92167,76,11.15
Pleugueneuc,35226,35720,4,Combourg,CC Bretagne Romantique,2063,48.39722,-1.90111,67,24.84
Pleumeleuc,35227,35137,3,Montfort-sur-Meu,CC Montfort Communauté,3535,48.18389,-1.91722,85,19.69
Pleurtuit,35228,35730,4,Saint-Malo-2,CC Côte d'Emeraude,7064,48.57806,-2.05861,62,28.9
Pocé-les-Bois,35229,35500,1,Vitré,CA Vitré Communauté,1317,48.11555,-1.24972,65,14.96
Poilley,35230,35420,1,Fougères-2,CA Fougères Agglomération,380,48.46611,-1.26167,170,10.78
Poligné,35231,35320,2,Bain-de-Bretagne,CC Bretagne Porte de Loire Communauté,1245,47.88806,-1.68611,60,9.54
Pont-Péan,35363,35131,3,Bruz,Rennes Métropole,4289,48.01361,-1.70222,40,8.76
Princé,35232,35210,1,Vitré,CA Vitré Communauté,398,48.21639,-1.08889,150,12.31
Québriac,35233,35190,4,Combourg,CC Bretagne Romantique,1590,48.34472,-1.82472,50,20.77
Quédillac,35234,35290,3,Montauban-de-Bretagne,CC de Saint-Méen Montauban,1272,48.25028,-2.13889,90,26.73
Rannée,35235,35130,1,La Guerche-de-Bretagne,CA Vitré Communauté,1081,47.925,-1.23972,75,52.62
Redon,35236,35600,2,Redon,CA Redon Agglomération,9336,47.65389,-2.07944,50,15.38
Renac,35237,35660,2,Redon,CA Redon Agglomération,1032,47.72083,-1.975,40,26.25
Rennes [4],35238,35000,3,Rennes,Rennes Métropole,227830,48.10778,-1.68028,35,50.48
Retiers,35239,35240,1,La Guerche-de-Bretagne,Roche aux Fées Communauté,4553,47.91472,-1.37944,59,42.16
le Rheu,35240,35650,3,Le Rheu,Rennes Métropole,9823,48.08028,-1.77278,30,19.24
la Richardais,35241,35780,4,Saint-Malo-2,CC Côte d'Emeraude,2624,48.60722,-2.03306,18,3.21
Rimou,35242,35560,1,Val-Couesnon,CC Couesnon Marches de Bretagne,350,48.39861,-1.51056,30,13.58
Rives-du-Couesnon,35282,35140,1,Fougères-1,CA Fougères Agglomération,2919,48.29056,-1.36694,52,18.56
Romagné,35243,35133,1,Fougères-1,CA Fougères Agglomération,2434,48.34278,-1.275,114,27.06
Romazy,35244,35490,1,Val-Couesnon,CC Couesnon Marches de Bretagne,275,48.37556,-1.49611,60,7.19
Romillé,35245,35850,3,Montauban-de-Bretagne,Rennes Métropole,4154,48.21528,-1.89111,102,29.02
Roz-Landrieux,35246,35120,4,Dol-de-Bretagne,CC du Pays de Dol et de la Baie du Mont Saint-Michel,1376,48.54445,-1.81472,20,18.11
Roz-sur-Couesnon,35247,35610,4,Dol-de-Bretagne,CC du Pays de Dol et de la Baie du Mont Saint-Michel,1036,48.58972,-1.59139,8,26.14
Sains,35248,35610,4,Dol-de-Bretagne,CC du Pays de Dol et de la Baie du Mont Saint-Michel,457,48.55361,-1.58528,65,10.48
Saint-Armel,35250,35230,3,Janzé,Rennes Métropole,2344,48.01167,-1.59056,40,7.88
Saint-Aubin-d'Aubigné,35251,35250,3,Val-Couesnon,CC Val d'Ille-Aubigné,4231,48.2625,-1.60611,90,23.39
Saint-Aubin-des-Landes,35252,35500,1,Vitré,CA Vitré Communauté,923,48.09389,-1.29583,60,10.33
Saint-Aubin-du-Cormier,35253,35140,3,Fougères-1,CC Liffré-Cormier Communauté,4145,48.26056,-1.39806,112,27.6
Saint-Benoît-des-Ondes,35255,35114,4,Dol-de-Bretagne,CA du Pays de Saint Malo Agglomération,966,48.61861,-1.85056,8,2.89
Saint-Briac-sur-Mer,35256,35800,4,Saint-Malo-2,CC Côte d'Emeraude,2228,48.61945,-2.13139,19,8.07
Saint-Brieuc-des-Iffs,35258,35630,4,Combourg,CC Bretagne Romantique,323,48.29167,-1.85028,78,8.24
Saint-Broladre,35259,35120,4,Dol-de-Bretagne,CC du Pays de Dol et de la Baie du Mont Saint-Michel,1166,48.58639,-1.65778,7,24.29
Saint-Christophe-de-Valains,35261,35140,1,Fougères-1,CA Fougères Agglomération,230,48.34306,-1.44611,73,3.29
Saint-Christophe-des-Bois,35260,35210,1,Vitré,CA Vitré Communauté,562,48.22611,-1.24472,129,9.28
Saint-Coulomb,35263,35350,4,Saint-Malo-1,CA du Pays de Saint Malo Agglomération,2970,48.67639,-1.91139,40,18.07
Saint-Didier,35264,35220,1,Châteaugiron,CA Vitré Communauté,2030,48.09472,-1.37111,70,14.24
Saint-Domineuc,35265,35190,4,Combourg,CC Bretagne Romantique,2587,48.3725,-1.87472,35,15.82
Saint-Erblon,35266,35230,3,Janzé,Rennes Métropole,3615,48.01944,-1.65139,30,10.93
Saint-Ganton,35268,35550,2,Redon,CA Redon Agglomération,414,47.75361,-1.8825,70,14.23
Saint-Georges-de-Gréhaigne,35270,35610,4,Dol-de-Bretagne,CC du Pays de Dol et de la Baie du Mont Saint-Michel,377,48.56805,-1.54806,20,12.29
Saint-Georges-de-Reintembault,35271,35420,1,Fougères-2,CA Fougères Agglomération,1524,48.50917,-1.24194,135,31.62
Saint-Germain-du-Pinel,35272,35370,1,La Guerche-de-Bretagne,CA Vitré Communauté,1007,48.01139,-1.16417,94,11.29
Saint-Germain-en-Coglès,35273,35133,1,Val-Couesnon,CC Couesnon Marches de Bretagne,2091,48.40611,-1.26306,124,32.65
Saint-Germain-sur-Ille,35274,35250,3,Melesse,CC Val d'Ille-Aubigné,1023,48.24805,-1.6575,80,3.71
Saint-Gilles,35275,35590,3,Melesse,Rennes Métropole,5489,48.15306,-1.82833,50,21.0
Saint-Gondran,35276,35630,3,Melesse,CC Val d'Ille-Aubigné,629,48.26694,-1.83389,110,4.44
Saint-Gonlay,35277,35750,3,Montfort-sur-Meu,CC Montfort Communauté,381,48.11472,-2.06417,62,9.24
Saint-Grégoire,35278,35760,3,Betton,Rennes Métropole,9992,48.15278,-1.68028,32,17.64
Saint-Guinoux,35279,35430,4,Dol-de-Bretagne,CA du Pays de Saint Malo Agglomération,1247,48.57528,-1.88278,10,6.5
Saint-Hilaire-des-Landes,35280,35140,1,Val-Couesnon,CC Couesnon Marches de Bretagne,1032,48.35111,-1.35806,110,18.54
Saint-Jacques-de-la-Lande,35281,35136,3,Rennes-5,Rennes Métropole,13593,48.06861,-1.72056,34,12.32
Saint-Jean-sur-Vilaine,35283,35220,1,Châteaugiron,CA Vitré Communauté,1376,48.11611,-1.36028,77,10.82
Saint-Jouan-des-Guérets,35284,35430,4,Saint-Malo-2,CA du Pays de Saint Malo Agglomération,2816,48.59889,-1.9725,46,9.18
Saint-Just,35285,35550,2,Redon,CA Redon Agglomération,1103,47.76583,-1.96111,70,28.03
Saint-Léger-des-Prés,35286,35270,4,Combourg,CC Bretagne Romantique,295,48.395,-1.65083,50,5.6
Saint-Lunaire,35287,35800,4,Saint-Malo-2,CC Côte d'Emeraude,2647,48.63361,-2.10778,21,10.43
Saint-M'Hervé,35300,35500,1,Vitré,CA Vitré Communauté,1357,48.1775,-1.11722,116,31.22
Saint-Malo,35288,35400,4,Saint-Malo,CA du Pays de Saint Malo Agglomération,47255,48.63472,-2.01167,30,36.57
Saint-Malo-de-Phily,35289,35480,2,Redon,CC Vallons de Haute-Bretagne Communauté,1074,47.87778,-1.78694,80,18.75
Saint-Malon-sur-Mel,35290,35750,3,Montauban-de-Bretagne,CC de Saint-Méen Montauban,613,48.09333,-2.09667,80,16.26
Saint-Marc-le-Blanc,35292,35460,1,Val-Couesnon,CC Couesnon Marches de Bretagne,1567,48.36444,-1.40861,100,17.79
Saint-Marcan,35291,35120,4,Dol-de-Bretagne,CC du Pays de Dol et de la Baie du Mont Saint-Michel,432,48.58833,-1.635,40,7.64
Saint-Maugan,35295,35750,3,Montauban-de-Bretagne,CC de Saint-Méen Montauban,518,48.135,-2.0825,60,8.57
Saint-Médard-sur-Ille,35296,35250,3,Melesse,CC Val d'Ille-Aubigné,1350,48.27194,-1.65694,80,18.4
Saint-Méen-le-Grand,35297,35290,3,Montauban-de-Bretagne,CC de Saint-Méen Montauban,4642,48.1875,-2.18778,107,18.47
Saint-Méloir-des-Ondes,35299,35350,4,Saint-Malo-1,CA du Pays de Saint Malo Agglomération,4666,48.63889,-1.90222,50,28.99
Saint-Onen-la-Chapelle,35302,35290,3,Montauban-de-Bretagne,CC de Saint-Méen Montauban,1121,48.17833,-2.17056,100,25.01
Saint-Ouen-des-Alleux,35304,35140,1,Fougères-1,CA Fougères Agglomération,1308,48.32833,-1.42333,85,15.42
Saint-Péran,35305,35380,3,Montfort-sur-Meu,CC Brocéliande Communauté,415,48.05444,-2.05583,130,9.39
Saint-Père,35306,35430,4,Dol-de-Bretagne,CA du Pays de Saint Malo Agglomération,2399,48.58861,-1.92417,50,18.81
Saint-Pern,35307,35190,3,Montauban-de-Bretagne,CC de Saint-Méen Montauban,1003,48.28806,-1.98806,100,12.13
Saint-Rémy-du-Plain,35309,35560,1,Val-Couesnon,CC Couesnon Marches de Bretagne,808,48.36917,-1.56917,100,14.72
Saint-Sauveur-des-Landes,35310,35133,1,Fougères-1,CA Fougères Agglomération,1565,48.34139,-1.3125,115,18.89
Saint-Séglin,35311,35330,2,Guichen,CC Vallons de Haute-Bretagne Communauté,600,47.85389,-2.005,50,9.49
Saint-Senoux,35312,35580,2,Guichen,CC Vallons de Haute-Bretagne Communauté,1836,47.90528,-1.78861,70,18.18
Saint-Suliac,35314,35430,4,Dol-de-Bretagne,CA du Pays de Saint Malo Agglomération,977,48.57056,-1.97278,21,4.82
Saint-Sulpice-des-Landes,35316,35390,2,Bain-de-Bretagne,CC Bretagne Porte de Loire Communauté,827,47.76694,-1.62417,40,11.38
Saint-Sulpice-la-Forêt,35315,35250,3,Liffré,Rennes Métropole,1557,48.21778,-1.57833,60,6.82
Saint-Symphorien,35317,35630,3,Melesse,CC Val d'Ille-Aubigné,613,0.84285,-0.03185,0,7.5
Saint-Thual,35318,35190,4,Combourg,CC Bretagne Romantique,999,48.33694,-1.93361,83,11.55
Saint-Thurial,35319,35310,3,Montfort-sur-Meu,CC Brocéliande Communauté,2165,48.02917,-1.9275,60,18.13
Saint-Uniac,35320,35360,3,Montauban-de-Bretagne,CC de Saint-Méen Montauban,512,48.17389,-2.02639,64,6.88
Sainte-Anne-sur-Vilaine,35249,35390,2,Bain-de-Bretagne,CC Bretagne Porte de Loire Communauté,1032,47.73278,-1.825,30,28.75
Sainte-Colombe,35262,35134,1,La Guerche-de-Bretagne,Roche aux Fées Communauté,364,47.88806,-1.45472,80,7.76
Sainte-Marie,35294,35600,2,Redon,CA Redon Agglomération,2249,47.69361,-2.00333,50,25.07
Saulnières,35321,35320,2,Bain-de-Bretagne,CC Bretagne Porte de Loire Communauté,798,47.91583,-1.58861,97,10.58
le Sel-de-Bretagne,35322,35320,2,Bain-de-Bretagne,CC Bretagne Porte de Loire Communauté,1102,47.89639,-1.60972,70,8.58
la Selle-en-Luitré,35324,35133,1,Fougères-2,CA Fougères Agglomération,618,48.31028,-1.12583,100,8.58
la Selle-Guerchaise,35325,35130,1,La Guerche-de-Bretagne,CA Vitré Communauté,153,47.94417,-1.17222,74,2.25
Sens-de-Bretagne,35326,35490,3,Val-Couesnon,CC Val d'Ille-Aubigné,2620,48.33167,-1.53528,83,31.17
Servon-sur-Vilaine,35327,35530,3,Châteaugiron,CC Pays de Châteaugiron Communauté,4032,48.12028,-1.45944,50,15.35
Sixt-sur-Aff,35328,35550,2,Redon,CA Redon Agglomération,2222,47.77667,-2.07778,47,43.29
Sougéal,35329,35610,4,Dol-de-Bretagne,CC du Pays de Dol et de la Baie du Mont Saint-Michel,544,48.51028,-1.5225,50,14.4
Taillis,35330,35500,1,Vitré,CA Vitré Communauté,1036,48.18972,-1.23722,110,13.11
Talensac,35331,35160,3,Montfort-sur-Meu,CC Montfort Communauté,2530,48.10889,-1.92528,75,21.78
Teillay,35332,35620,2,Bain-de-Bretagne,CC Bretagne Porte de Loire Communauté,1103,47.80722,-1.53833,70,26.62
le Theil-de-Bretagne,35333,35240,1,La Guerche-de-Bretagne,Roche aux Fées Communauté,1720,47.92083,-1.42889,80,24.46
Thorigné-Fouillard,35334,35235,3,Liffré,Rennes Métropole,8631,48.15361,-1.58028,78,13.5
Thourie,35335,35134,1,La Guerche-de-Bretagne,Roche aux Fées Communauté,857,47.85583,-1.48083,55,24.56
le Tiercent,35336,35460,1,Val-Couesnon,CC Couesnon Marches de Bretagne,194,48.35083,-1.40361,80,3.66
Tinténiac,35337,35190,4,Combourg,CC Bretagne Romantique,3877,48.32944,-1.83361,40,23.43
Torcé,35338,35370,1,La Guerche-de-Bretagne,CA Vitré Communauté,1270,48.06194,-1.26611,90,14.23
Trans-la-Forêt,35339,35610,4,Dol-de-Bretagne,CC du Pays de Dol et de la Baie du Mont Saint-Michel,638,48.49639,-1.58806,90,15.18
Treffendel,35340,35380,3,Montfort-sur-Meu,CC Brocéliande Communauté,1327,48.04028,-2.00389,121,19.01
Trémeheuc,35342,35270,4,Combourg,CC Bretagne Romantique,349,48.42805,-1.69861,95,6.29
Tresbœuf,35343,35320,2,Bain-de-Bretagne,CC Bretagne Porte de Loire Communauté,1235,47.85528,-1.55667,98,25.65
Trévérien,35345,35190,4,Combourg,CC Bretagne Romantique,918,48.37139,-1.92833,17,12.26
Trimer,35346,35190,4,Combourg,CC Bretagne Romantique,205,48.34056,-1.89278,70,3.61
le Tronchet,35362,35540,4,Dol-de-Bretagne,CA du Pays de Saint Malo Agglomération,1204,48.48694,-1.83639,47,11.33
Val d'Anast,35168,35330,2,Guichen,CC Vallons de Haute-Bretagne Communauté,3925,47.89111,-1.98972,40,65.48
Val-Couesnon,35004,35560,1,Val-Couesnon,CC Couesnon Marches de Bretagne,4084,48.4625,-1.48111,40,9.44
Val-d'Izé,35347,35450,1,Vitré,CA Vitré Communauté,2601,48.17556,-1.3025,90,45.73
Vergéal,35350,35680,1,La Guerche-de-Bretagne,CA Vitré Communauté,804,48.03528,-1.26389,89,11.17
le Verger,35351,35160,3,Le Rheu,Rennes Métropole,1404,48.06944,-1.9325,50,6.97
Vern-sur-Seiche,35352,35770,3,Janzé,Rennes Métropole,8272,48.04639,-1.60139,50,19.91
Vezin-le-Coquet,35353,35132,3,Le Rheu,Rennes Métropole,6441,48.11833,-1.75611,40,7.88
Vieux-Viel,35354,35610,4,Dol-de-Bretagne,CC du Pays de Dol et de la Baie du Mont Saint-Michel,328,48.5125,-1.54167,27,9.01
Vieux-Vy-sur-Couesnon,35355,35490,3,Val-Couesnon,CC Val d'Ille-Aubigné,1280,48.34222,-1.48833,67,21.64
Vignoc,35356,35630,3,Melesse,CC Val d'Ille-Aubigné,2290,48.2475,-1.78194,100,14.33
Villamée,35357,35420,1,Fougères-2,CA Fougères Agglomération,291,48.46222,-1.21944,140,10.93
la Ville-ès-Nonais,35358,35430,4,Dol-de-Bretagne,CA du Pays de Saint Malo Agglomération,1226,48.54833,-1.95278,40,4.5
Visseiche,35359,35130,1,La Guerche-de-Bretagne,CA Vitré Communauté,868,47.95667,-1.30028,55,16.3
Vitré,35360,35500,1,Vitré,CA Vitré Communauté,18892,48.12611,-1.21167,112,38.65
le Vivier-sur-Mer,35361,35960,4,Dol-de-Bretagne,CC du Pays de Dol et de la Baie du Mont Saint-Michel,1062,48.60278,-1.77778,8,2.19
Allaire,56001,56350,3,Guer,CA Redon Agglomération,3906,47.63639,-2.16472,60,42.46
Ambon,56002,56190,3,Muzillac,CC Arc Sud Bretagne,2091,47.55444,-2.55667,10,38.13
Arradon,56003,56610,3,Vannes-2,CA Golfe du Morbihan - Vannes Agglomération,5820,47.6275,-2.82111,20,19.15
Arzal,56004,56190,3,Muzillac,CC Arc Sud Bretagne,1794,47.51639,-2.37361,40,25.38
Arzon,56005,56640,3,Séné,CA Golfe du Morbihan - Vannes Agglomération,2272,47.55111,-2.89333,20,9.39
Augan,56006,56800,3,Guer,CC de l'Oust à Brocéliande,1542,47.91917,-2.27611,80,41.08
Auray,56007,56400,1,Auray,CC Auray Quiberon Terre Atlantique,14417,47.67,-2.98833,40,7.11
Baden,56008,56870,3,Vannes-2,CA Golfe du Morbihan - Vannes Agglomération,4864,47.62111,-2.9175,30,23.2
Bangor,56009,56360,1,Quiberon,CC de Belle Ile en Mer,1002,47.31639,-3.18694,50,25.69
Baud,56010,56150,2,Pontivy,CC Baud Communauté,6246,47.87667,-3.01917,60,48.7
Béganne,56011,56350,3,Guer,CA Redon Agglomération,1458,47.59694,-2.23722,68,35.44
Beignon,56012,56380,3,Guer,CC de l'Oust à Brocéliande,1939,47.97139,-2.16889,110,24.94
Belz,56013,56550,1,Quiberon,CC Auray Quiberon Terre Atlantique,3869,47.67833,-3.16583,10,16.03
Berné,56014,56240,2,Gourin,CC Roi Morvan Communauté,1558,47.99445,-3.39,123,35.26
Berric,56015,56230,3,Questembert,CC Questembert Communauté,2119,47.63306,-2.5225,78,21.59
Bignan,56017,56500,2,Moréac,CC Centre Morbihan Communauté,2750,47.87972,-2.77028,140,46.07
Billiers,56018,56190,3,Muzillac,CC Arc Sud Bretagne,1056,47.53305,-2.48806,21,6.03
Billio,56019,56420,2,Moréac,CC Centre Morbihan Communauté,324,47.86833,-2.63056,117,12.0
Bohal,56020,56140,3,Moréac,CC de l'Oust à Brocéliande,862,47.78222,-2.4375,70,8.44
Bono,56262,56400,3,Vannes-2,CA Golfe du Morbihan - Vannes Agglomération,2594,47.64028,-2.9475,20,6.28
Brandérion,56021,56700,1,Pluvigner,CA Lorient Agglomération,1480,47.79306,-3.19278,40,6.06
Brandivy,56022,56390,3,Grand-Champ,CA Golfe du Morbihan - Vannes Agglomération,1423,47.77611,-2.94222,70,26.05
Brech,56023,56400,1,Pluvigner,CC Auray Quiberon Terre Atlantique,7057,47.72167,-2.99444,45,39.82
Bréhan,56024,56580,2,Grand-Champ,CC Pontivy Communauté,2298,48.06139,-2.68556,90,51.62
Brignac,56025,56430,2,Ploërmel,Ploërmel Communauté,198,48.12278,-2.38417,90,13.15
Bubry,56026,56310,1,Guidel,CA Lorient Agglomération,2262,47.96333,-3.17444,100,69.26
Buléon,56027,56420,2,Moréac,CC Centre Morbihan Communauté,546,47.93583,-2.67611,116,12.31
Caden,56028,56220,3,Questembert,CC Questembert Communauté,1570,47.63111,-2.28417,68,38.21
Calan,56029,56240,1,Guidel,CA Lorient Agglomération,1267,47.87472,-3.32111,100,12.28
Camoël,56030,56130,3,Muzillac,CA de la Presqu'île de Guérande Atlantique (CAP ATLANTIQUE),1156,47.4825,-2.39417,30,14.73
Camors,56031,56330,1,Pluvigner,CC Auray Quiberon Terre Atlantique,3180,47.84833,-3.0,114,37.17
Campénéac,56032,56800,2,Ploërmel,Ploërmel Communauté,1940,47.95806,-2.29083,75,61.0
Carentoir,56033,56910,3,Guer,CC de l'Oust à Brocéliande,3137,47.81639,-2.13139,50,59.0
Carnac,56034,56340,1,Quiberon,CC Auray Quiberon Terre Atlantique,4215,47.58472,-3.07944,15,33.65
Caro,56035,56140,3,Moréac,CC de l'Oust à Brocéliande,1132,47.86361,-2.31778,105,38.23
Caudan,56036,56850,1,Lanester,CA Lorient Agglomération,7110,47.81139,-3.33917,50,42.44
la Chapelle-Neuve,56039,56500,2,Grand-Champ,CC Baud Communauté,1002,47.86444,-2.94083,65,21.8
Cléguer,56040,56620,1,Guidel,CA Lorient Agglomération,3404,47.85417,-3.38222,50,32.46
Cléguérec,56041,56480,2,Gourin,CC Pontivy Communauté,2849,48.12472,-3.06667,156,63.04
Colpo,56042,56390,3,Grand-Champ,CA Golfe du Morbihan - Vannes Agglomération,2258,47.81889,-2.805,87,26.74
Concoret,56043,56430,2,Ploërmel,Ploërmel Communauté,765,48.06278,-2.20528,90,15.86
Cournon,56044,56200,3,Guer,CC de l'Oust à Brocéliande,805,47.74667,-2.10222,15,10.92
le Cours,56045,56230,3,Questembert,CC Questembert Communauté,673,47.74361,-2.49806,87,15.69
Crach,56046,56950,1,Auray,CC Auray Quiberon Terre Atlantique,3458,47.61611,-3.0,29,31.78
Crédin,56047,56580,2,Grand-Champ,CC Pontivy Communauté,1493,48.035,-2.76667,129,33.58
le Croisty,56048,56540,2,Gourin,CC Roi Morvan Communauté,742,48.06472,-3.365,204,15.94
la Croix-Helléan,56050,56120,2,Ploërmel,Ploërmel Communauté,881,47.9575,-2.49806,90,14.52
Cruguel,56051,56420,2,Ploërmel,Ploërmel Communauté,661,47.87861,-2.59389,145,17.3
Damgan,56052,56750,3,Muzillac,CC Arc Sud Bretagne,1930,47.51917,-2.57778,10,12.14
Elven,56053,56250,3,Questembert,CA Golfe du Morbihan - Vannes Agglomération,6543,47.73333,-2.58861,91,64.45
Erdeven,56054,56410,1,Quiberon,CC Auray Quiberon Terre Atlantique,3987,47.64139,-3.15472,16,30.56
Étel,56055,56410,1,Quiberon,CC Auray Quiberon Terre Atlantique,2058,47.66,-3.19806,10,2.03
Évellys,56144,56500,2,Grand-Champ,CC Centre Morbihan Communauté,3384,47.98944,-2.82889,121,41.33
Évriguet,56056,56490,2,Ploërmel,Ploërmel Communauté,210,48.07944,-2.40944,80,4.92
le Faouët,56057,56320,2,Gourin,CC Roi Morvan Communauté,2816,48.03417,-3.48472,152,35.08
Férel,56058,56130,3,Muzillac,CA de la Presqu'île de Guérande Atlantique (CAP ATLANTIQUE),3445,47.48222,-2.34083,40,30.23
Forges de Lanouée,56102,56120,2,Ploërmel,Ploërmel Communauté,2190,48.00306,-2.58056,90,44.55
les Fougerêts,56060,56200,3,Guer,CA Redon Agglomération,960,47.73889,-2.21,42,20.08
la Gacilly,56061,56200,3,Guer,CC de l'Oust à Brocéliande,4011,47.76611,-2.12944,30,16.49
Gâvres,56062,56680,1,Pluvigner,CA Lorient Agglomération,685,47.68972,-3.35417,10,1.83
Gestel,56063,56530,1,Guidel,CA Lorient Agglomération,2569,47.80528,-3.43944,50,6.21
Gourhel,56065,56800,2,Ploërmel,Ploërmel Communauté,724,47.93722,-2.35917,90,2.85
Gourin,56066,56110,2,Gourin,CC Roi Morvan Communauté,3892,48.14111,-3.60583,141,75.2
Grand-Champ,56067,56390,3,Grand-Champ,CA Golfe du Morbihan - Vannes Agglomération,5859,47.75861,-2.84333,128,67.52
la Grée-Saint-Laurent,56068,56120,2,Ploërmel,Ploërmel Communauté,310,47.99361,-2.49583,92,7.86
Groix,56069,56590,1,Lorient-2,CA Lorient Agglomération,2308,47.63972,-3.45361,30,15.38
Guégon,56070,56120,2,Ploërmel,Ploërmel Communauté,2308,47.93722,-2.5625,90,53.59
Guéhenno,56071,56420,2,Moréac,CC Centre Morbihan Communauté,804,47.89305,-2.63583,110,23.34
Gueltas,56072,56920,2,Pontivy,CC Pontivy Communauté,532,48.09528,-2.79417,110,20.81
Guémené-sur-Scorff,56073,56160,2,Gourin,CC Roi Morvan Communauté,1136,48.06778,-3.20583,137,1.18
Guénin,56074,56150,2,Pontivy,CC Baud Communauté,1895,47.90722,-2.97833,63,28.9
Guer,56075,56380,3,Guer,CC de l'Oust à Brocéliande,6056,47.90333,-2.12056,40,52.09
Guern,56076,56310,2,Pontivy,CC Pontivy Communauté,1379,48.03111,-3.08778,150,47.0
